[{"updateTime": 1496589068, "stations": [{"status": "OPN", "nearbyStations": "24, 369, 387, 426", "altitude": "21", "longitude": "2.180042", "bikes": "19", "streetNumber": "760", "latitude": "41.397952", "slots": "4", "type": "BIKE", "id": "1", "streetName": "Gran Via Corts Catalanes"}, {"status": "OPN", "nearbyStations": "360, 368, 387, 414", "altitude": "21", "longitude": "2.17706", "bikes": "5", "streetNumber": "126", "latitude": "41.39553", "slots": "16", "type": "BIKE", "id": "2", "streetName": "Roger de Flor/ Gran V\u00eda"}, {"status": "OPN", "nearbyStations": "4, 6, 119, 419", "altitude": "21", "longitude": "2.181137", "bikes": "20", "streetNumber": "44", "latitude": "41.393699", "slots": "7", "type": "BIKE", "id": "3", "streetName": "Ali Bei"}, {"status": "OPN", "nearbyStations": "3, 5, 359, 419", "altitude": "21", "longitude": "2.18149", "bikes": "7", "streetNumber": "13", "latitude": "41.39347", "slots": "10", "type": "BIKE", "id": "4", "streetName": "Ribes"}, {"status": "OPN", "nearbyStations": "6, 7, 359, 418", "altitude": "16", "longitude": "2.180223", "bikes": "35", "streetNumber": "11", "latitude": "41.391075", "slots": "3", "type": "BIKE", "id": "5", "streetName": "Pg Llu\u00eds Companys"}, {"status": "OPN", "nearbyStations": "5, 8, 359, 419", "altitude": "16", "longitude": "2.18061", "bikes": "20", "streetNumber": "18", "latitude": "41.391349", "slots": "18", "type": "BIKE", "id": "6", "streetName": "Pg Llu\u00eds Companys"}, {"status": "OPN", "nearbyStations": "8, 10, 118, 389", "altitude": "16", "longitude": "2.183251", "bikes": "20", "streetNumber": "1", "latitude": "41.388856", "slots": "5", "type": "BIKE", "id": "7", "streetName": "Pg Llu\u00eds Companys"}, {"status": "OPN", "nearbyStations": "6, 10, 118, 389", "altitude": "11", "longitude": "2.183568", "bikes": "11", "streetNumber": "2", "latitude": "41.389088", "slots": "14", "type": "BIKE", "id": "8", "streetName": "Pg Llu\u00eds Companys"}, {"status": "OPN", "nearbyStations": "10, 14, 115, 389", "altitude": "11", "longitude": "2.185249", "bikes": "16", "streetNumber": "17", "latitude": "41.385031", "slots": "1", "type": "BIKE", "id": "9", "streetName": "Marqu\u00e8s de l'Argentera"}, {"status": "OPN", "nearbyStations": "9, 14, 115, 389", "altitude": "11", "longitude": "2.18417", "bikes": "13", "streetNumber": "27", "latitude": "41.38498", "slots": "19", "type": "BIKE", "id": "10", "streetName": "Carrer Comer\u00e7"}, {"status": "OPN", "nearbyStations": "116, 124, 125, 396", "altitude": "1", "longitude": "2.193914", "bikes": "5", "streetNumber": "2", "latitude": "41.381689", "slots": "11", "type": "BIKE", "id": "11", "streetName": "Trelawny"}, {"status": "OPN", "nearbyStations": "11, 13, 116, 396", "altitude": "0", "longitude": "2.195679", "bikes": "16", "streetNumber": "23", "latitude": "41.384538", "slots": "12", "type": "BIKE", "id": "12", "streetName": "Pg Mar\u00edtim Barceloneta"}, {"status": "OPN", "nearbyStations": "11, 12, 46, 69", "altitude": "1", "longitude": "2.195761", "bikes": "22", "streetNumber": "16", "latitude": "41.386861", "slots": "7", "type": "BIKE", "id": "13", "streetName": "Avinguda Litoral"}, {"status": "OPN", "nearbyStations": "9, 10, 115, 389", "altitude": "11", "longitude": "2.185074", "bikes": "20", "streetNumber": "19", "latitude": "41.384825", "slots": "0", "type": "BIKE", "id": "14", "streetName": "Avinguda del Marques Argentera"}, {"status": "OPN", "nearbyStations": "23, 25, 362, 413", "altitude": "42", "longitude": "2.17076", "bikes": "8", "streetNumber": "74", "latitude": "41.39515", "slots": "9", "type": "BIKE", "id": "15", "streetName": "Girona"}, {"status": "OPN", "nearbyStations": "17, 44, 48, 372", "altitude": "18", "longitude": "2.186708", "bikes": "16", "streetNumber": "47", "latitude": "41.39827", "slots": "2", "type": "BIKE", "id": "16", "streetName": "Av. Meridiana"}, {"status": "OPN", "nearbyStations": "16, 48, 211, 372", "altitude": "18", "longitude": "2.186711", "bikes": "11", "streetNumber": "47", "latitude": "41.398237", "slots": "8", "type": "BIKE", "id": "17", "streetName": "Av. Meridiana"}, {"status": "OPN", "nearbyStations": "19, 28, 120, 370", "altitude": "49", "longitude": "2.17414", "bikes": "11", "streetNumber": "412", "latitude": "41.405881", "slots": "18", "type": "BIKE", "id": "18", "streetName": "Rossell\u00f3"}, {"status": "OPN", "nearbyStations": "18, 22, 29, 370", "altitude": "49", "longitude": "2.170726", "bikes": "11", "streetNumber": "354", "latitude": "41.403282", "slots": "18", "type": "BIKE", "id": "19", "streetName": "Rossell\u00f3"}, {"status": "OPN", "nearbyStations": "21, 28, 164, 177, 278", "altitude": "59", "longitude": "2.175759", "bikes": "2", "streetNumber": "308", "latitude": "41.410166", "slots": "17", "type": "BIKE", "id": "20", "streetName": "Cartagena"}, {"status": "OPN", "nearbyStations": "20, 28, 164, 278", "altitude": "59", "longitude": "2.17402", "bikes": "2", "streetNumber": "214", "latitude": "41.410897", "slots": "16", "type": "BIKE", "id": "21", "streetName": "Sant Antoni Maria Claret"}, {"status": "OPN", "nearbyStations": "29, 120, 369, 370", "altitude": "28", "longitude": "2.175206", "bikes": "6", "streetNumber": "296", "latitude": "41.402051", "slots": "16", "type": "BIKE", "id": "22", "streetName": "Sardenya"}, {"status": "OPN", "nearbyStations": "15, 360, 363, 413", "altitude": "42", "longitude": "2.171812", "bikes": "7", "streetNumber": "45", "latitude": "41.392526", "slots": "18", "type": "BIKE", "id": "23", "streetName": "Bruc"}, {"status": "OPN", "nearbyStations": "1, 30, 369, 426", "altitude": "21", "longitude": "2.180319", "bikes": "4", "streetNumber": "185", "latitude": "41.399982", "slots": "15", "type": "BIKE", "id": "24", "streetName": "Marina"}, {"status": "OPN", "nearbyStations": "15, 123, 362, 413", "altitude": "42", "longitude": "2.168294", "bikes": "0", "streetNumber": "102", "latitude": "41.395179", "slots": "19", "type": "BIKE", "id": "25", "streetName": "Bruc"}, {"status": "OPN", "nearbyStations": "120, 121, 177, 371", "altitude": "28", "longitude": "2.181981", "bikes": "4", "streetNumber": "230", "latitude": "41.407035", "slots": "8", "type": "BIKE", "id": "26", "streetName": "Dos Maig"}, {"status": "OPN", "nearbyStations": "123, 189, 224, 374", "altitude": "49", "longitude": "2.164415", "bikes": "0", "streetNumber": "322", "latitude": "41.396881", "slots": "20", "type": "BIKE", "id": "27", "streetName": "Proven\u00e7a"}, {"status": "OPN", "nearbyStations": "18, 20, 122, 277", "altitude": "49", "longitude": "2.170871", "bikes": "3", "streetNumber": "311", "latitude": "41.407261", "slots": "15", "type": "BIKE", "id": "28", "streetName": "Marina"}, {"status": "OPN", "nearbyStations": "19, 224, 360, 370", "altitude": "50", "longitude": "2.170082", "bikes": "7", "streetNumber": "388", "latitude": "41.401101", "slots": "11", "type": "BIKE", "id": "29", "streetName": "Proven\u00e7a"}, {"status": "OPN", "nearbyStations": "24, 218, 369, 371", "altitude": "28", "longitude": "2.182286", "bikes": "4", "streetNumber": "231", "latitude": "41.402046", "slots": "14", "type": "BIKE", "id": "30", "streetName": "Diagonal"}, {"status": "OPN", "nearbyStations": "33, 39, 41, 124", "altitude": "1", "longitude": "2.18895", "bikes": "6", "streetNumber": "72", "latitude": "41.37481", "slots": "11", "type": "BIKE", "id": "31", "streetName": "Pla\u00e7a del Mar"}, {"status": "OPN", "nearbyStations": "31, 33, 124, 400", "altitude": "1", "longitude": "2.188927", "bikes": "14", "streetNumber": "1", "latitude": "41.373698", "slots": "13", "type": "BIKE", "id": "32", "streetName": "Pla\u00e7a del Mar"}, {"status": "OPN", "nearbyStations": "31, 41, 124, 424", "altitude": "1", "longitude": "2.190773", "bikes": "13", "streetNumber": "58", "latitude": "41.376862", "slots": "5", "type": "BIKE", "id": "33", "streetName": "Baluart"}, {"status": "OPN", "nearbyStations": "36, 105, 359, 380", "altitude": "16", "longitude": "2.175247", "bikes": "9", "streetNumber": "4", "latitude": "41.387074", "slots": "11", "type": "BIKE", "id": "34", "streetName": "Sant Pere M\u00e9s Alt"}, {"status": "OPN", "nearbyStations": "157, 158, 159, 160", "altitude": "1", "longitude": "2.221153", "bikes": "4", "streetNumber": "1", "latitude": "41.413592", "slots": "22", "type": "BIKE", "id": "35", "streetName": "Sant Ramon de Penyafort"}, {"status": "OPN", "nearbyStations": "34, 35, 53, 358, 380", "altitude": "16", "longitude": "2.176804", "bikes": "19", "streetNumber": "6", "latitude": "41.385151", "slots": "0", "type": "BIKE", "id": "36", "streetName": "Catedral"}, {"status": "OPN", "nearbyStations": "38, 115, 126, 401", "altitude": "5", "longitude": "2.181888", "bikes": "9", "streetNumber": "", "latitude": "41.381226", "slots": "13", "type": "BIKE", "id": "37", "streetName": "Pl. Antonio L\u00f3pez"}, {"status": "OPN", "nearbyStations": "39, 40, 124, 126", "altitude": "1", "longitude": "2.186397", "bikes": "7", "streetNumber": "", "latitude": "41.381129", "slots": "13", "type": "BIKE", "id": "38", "streetName": "Pl. Pau Vila"}, {"status": "OPN", "nearbyStations": "38, 40, 124, 126", "altitude": "1", "longitude": "2.186576", "bikes": "17", "streetNumber": "", "latitude": "41.381046", "slots": "4", "type": "BIKE", "id": "39", "streetName": "Pl. Pau Vila"}, {"status": "OPN", "nearbyStations": "37, 38, 116, 402", "altitude": "1", "longitude": "2.186275", "bikes": "13", "streetNumber": "2", "latitude": "41.382246", "slots": "0", "type": "BIKE", "id": "40", "streetName": "Doctor Aiguader"}, {"status": "OPN", "nearbyStations": "31, 39, 124, 424", "altitude": "1", "longitude": "2.189906", "bikes": "13", "streetNumber": "", "latitude": "41.379326", "slots": "2", "type": "BIKE", "id": "41", "streetName": "Pl. Poeta Bosc\u00e0/Atl\u00e0ntida"}, {"status": "OPN", "nearbyStations": "43, 44, 133, 286", "altitude": "18", "longitude": "2.190379", "bikes": "17", "streetNumber": "168", "latitude": "41.404418", "slots": "1", "type": "BIKE", "id": "42", "streetName": "Ciutat de Granada"}, {"status": "OPN", "nearbyStations": "30, 42, 44, 218", "altitude": "18", "longitude": "2.18712", "bikes": "15", "streetNumber": "80", "latitude": "41.40541", "slots": "12", "type": "BIKE", "id": "43", "streetName": "Av Meridiana"}, {"status": "OPN", "nearbyStations": "30, 42, 43, 286", "altitude": "18", "longitude": "2.187136", "bikes": "13", "streetNumber": "66", "latitude": "41.402165", "slots": "2", "type": "BIKE", "id": "44", "streetName": "Av Meridiana"}, {"status": "OPN", "nearbyStations": "47, 118, 392, 409", "altitude": "18", "longitude": "2.190426", "bikes": "10", "streetNumber": "65", "latitude": "41.392005", "slots": "1", "type": "BIKE", "id": "45", "streetName": "Marina "}, {"status": "OPN", "nearbyStations": "47, 69, 392, 407", "altitude": "1", "longitude": "2.193004", "bikes": "23", "streetNumber": "19", "latitude": "41.388359", "slots": "4", "type": "BIKE", "id": "46", "streetName": "Ramon trias Fargas"}, {"status": "OPN", "nearbyStations": "13, 46, 392, 407", "altitude": "1", "longitude": "2.192104", "bikes": "28", "streetNumber": "", "latitude": "41.389076", "slots": "0", "type": "BIKE", "id": "47", "streetName": "Ramon Trias Fargas"}, {"status": "OPN", "nearbyStations": "16, 118, 149, 211", "altitude": "18", "longitude": "2.18708", "bikes": "14", "streetNumber": "40", "latitude": "41.395261", "slots": "4", "type": "BIKE", "id": "48", "streetName": "Meridiana"}, {"status": "OPN", "nearbyStations": "46, 117, 163, 396", "altitude": "1", "longitude": "2.196457", "bikes": "8", "streetNumber": "20", "latitude": "41.39106", "slots": "12", "type": "BIKE", "id": "49", "streetName": "Rosa Sensat en front"}, {"status": "OPN", "nearbyStations": "114, 187, 232, 233", "altitude": "1", "longitude": "2.17035", "bikes": "18", "streetNumber": "54", "latitude": "41.375", "slots": "5", "type": "BIKE", "id": "50", "streetName": "Av. Paral.lel"}, {"status": "OPN", "nearbyStations": "55, 58, 59, 63", "altitude": "32", "longitude": "2.169019", "bikes": "21", "streetNumber": "", "latitude": "41.384054", "slots": "0", "type": "BIKE", "id": "51", "streetName": "Pl. Vicen\u00e7 Martorell"}, {"status": "OPN", "nearbyStations": "34, 36, 380, 395", "altitude": "32", "longitude": "2.173878", "bikes": "15", "streetNumber": "", "latitude": "41.385227", "slots": "5", "type": "BIKE", "id": "53", "streetName": "Pl. Carles Pi i Sunyer"}, {"status": "OPN", "nearbyStations": "114, 187, 388, 415", "altitude": "24", "longitude": "2.170586", "bikes": "20", "streetNumber": "2", "latitude": "41.377635", "slots": "0", "type": "BIKE", "id": "54", "streetName": "Sant Oleguer"}, {"status": "OPN", "nearbyStations": "54, 378, 379, 395", "altitude": "24", "longitude": "2.173497", "bikes": "16", "streetNumber": "80", "latitude": "41.381154", "slots": "1", "type": "BIKE", "id": "55", "streetName": "La Rambla"}, {"status": "OPN", "nearbyStations": "54, 57, 378, 425", "altitude": "5", "longitude": "2.175834", "bikes": "18", "streetNumber": "2", "latitude": "41.377011", "slots": "5", "type": "BIKE", "id": "56", "streetName": "Portal de Santa Madrona"}, {"status": "OPN", "nearbyStations": "56, 114, 361, 378", "altitude": "5", "longitude": "2.177093", "bikes": "26", "streetNumber": "2", "latitude": "41.376758", "slots": "0", "type": "BIKE", "id": "57", "streetName": "La Rambla"}, {"status": "OPN", "nearbyStations": "51, 59, 381, 388", "altitude": "24", "longitude": "2.167154", "bikes": "20", "streetNumber": "1", "latitude": "41.382822", "slots": "0", "type": "BIKE", "id": "58", "streetName": "Pla\u00e7a dels \u00c0ngels"}, {"status": "OPN", "nearbyStations": "51, 58, 381, 388", "altitude": "24", "longitude": "2.167203", "bikes": "21", "streetNumber": "2", "latitude": "41.382781", "slots": "0", "type": "BIKE", "id": "59", "streetName": "Pla\u00e7a dels \u00c0ngels"}, {"status": "OPN", "nearbyStations": "61, 66, 80, 364", "altitude": "41", "longitude": "2.16424", "bikes": "5", "streetNumber": "47", "latitude": "41.390349", "slots": "22", "type": "BIKE", "id": "60", "streetName": "Rambla Catalunya "}, {"status": "OPN", "nearbyStations": "60, 80, 287, 364", "altitude": "41", "longitude": "2.164946", "bikes": "10", "streetNumber": "42", "latitude": "41.390143", "slots": "16", "type": "BIKE", "id": "61", "streetName": "Rambla Catalunya"}, {"status": "OPN", "nearbyStations": "63, 64, 65, 395", "altitude": "32", "longitude": "2.168858", "bikes": "9", "streetNumber": "5", "latitude": "41.387142", "slots": "12", "type": "BIKE", "id": "62", "streetName": "Pl. Catalunya "}, {"status": "OPN", "nearbyStations": "62, 64, 65, 395", "altitude": "32", "longitude": "2.169417", "bikes": "23", "streetNumber": "7", "latitude": "41.386439", "slots": "4", "type": "BIKE", "id": "63", "streetName": "Pl. Catalunya"}, {"status": "OPN", "nearbyStations": "62, 63, 65, 395", "altitude": "32", "longitude": "2.169048", "bikes": "19", "streetNumber": "", "latitude": "41.387469", "slots": "0", "type": "BIKE", "id": "64", "streetName": "Pl. Catalunya"}, {"status": "OPN", "nearbyStations": "62, 63, 64, 395", "altitude": "32", "longitude": "2.169587", "bikes": "16", "streetNumber": "", "latitude": "41.387678", "slots": "1", "type": "BIKE", "id": "65", "streetName": "Pl. Catalunya"}, {"status": "OPN", "nearbyStations": "61, 64, 79, 287", "altitude": "32", "longitude": "2.167933", "bikes": "0", "streetNumber": "609", "latitude": "41.389097", "slots": "14", "type": "BIKE", "id": "66", "streetName": "Gran Via"}, {"status": "OPN", "nearbyStations": "75, 87, 89, 365", "altitude": "51", "longitude": "2.145843", "bikes": "13", "streetNumber": "214", "latitude": "41.385012", "slots": "9", "type": "BIKE", "id": "67", "streetName": "Rocafort"}, {"status": "OPN", "nearbyStations": "72, 73, 92, 374", "altitude": "59", "longitude": "2.157356", "bikes": "10", "streetNumber": "133", "latitude": "41.395364", "slots": "15", "type": "BIKE", "id": "68", "streetName": "Rambla Catalunya"}, {"status": "OPN", "nearbyStations": "12, 13, 125, 397", "altitude": "1", "longitude": "2.195689", "bikes": "18", "streetNumber": "", "latitude": "41.386814", "slots": "12", "type": "BIKE", "id": "69", "streetName": "Avda. Litoral"}, {"status": "OPN", "nearbyStations": "71, 91, 113, 261", "altitude": "35", "longitude": "2.161786", "bikes": "18", "streetNumber": "2", "latitude": "41.381328", "slots": "2", "type": "BIKE", "id": "70", "streetName": "Villarroel"}, {"status": "OPN", "nearbyStations": "70, 78, 113, 148", "altitude": "35", "longitude": "2.162969", "bikes": "18", "streetNumber": "145", "latitude": "41.381931", "slots": "3", "type": "BIKE", "id": "71", "streetName": "Floridablanca "}, {"status": "OPN", "nearbyStations": "68, 73, 92, 374", "altitude": "55", "longitude": "2.158811", "bikes": "17", "streetNumber": "215", "latitude": "41.392716", "slots": "6", "type": "BIKE", "id": "72", "streetName": "Proven\u00e7a"}, {"status": "OPN", "nearbyStations": "68, 72, 76, 92", "altitude": "59", "longitude": "2.155788", "bikes": "5", "streetNumber": "99", "latitude": "41.392846", "slots": "14", "type": "BIKE", "id": "73", "streetName": "Enric Granados"}, {"status": "OPN", "nearbyStations": "101, 102, 109, 366", "altitude": "51", "longitude": "2.143102", "bikes": "7", "streetNumber": "129", "latitude": "41.389391", "slots": "11", "type": "BIKE", "id": "74", "streetName": "Josep Tarradellas"}, {"status": "OPN", "nearbyStations": "67, 99, 197, 365", "altitude": "51", "longitude": "2.142868", "bikes": "7", "streetNumber": "58", "latitude": "41.385081", "slots": "11", "type": "BIKE", "id": "75", "streetName": "Josep Tarradellas"}, {"status": "OPN", "nearbyStations": "72, 73, 88, 90", "altitude": "45", "longitude": "2.153123", "bikes": "2", "streetNumber": "216", "latitude": "41.391751", "slots": "30", "type": "BIKE", "id": "76", "streetName": "C\u00f2rsega"}, {"status": "OPN", "nearbyStations": "71, 79, 209, 406", "altitude": "41", "longitude": "2.16338", "bikes": "24", "streetNumber": "", "latitude": "41.385598", "slots": "0", "type": "BIKE", "id": "78", "streetName": "Pl. Universitat"}, {"status": "OPN", "nearbyStations": "78, 209, 287, 406", "altitude": "41", "longitude": "2.16333", "bikes": "22", "streetNumber": "", "latitude": "41.38547", "slots": "0", "type": "BIKE", "id": "79", "streetName": "Pl. Universitat"}, {"status": "OPN", "nearbyStations": "60, 209, 385, 394", "altitude": "41", "longitude": "2.159999", "bikes": "3", "streetNumber": "35", "latitude": "41.389687", "slots": "13", "type": "BIKE", "id": "80", "streetName": "Enric Granados"}, {"status": "OPN", "nearbyStations": "82, 95, 97, 384", "altitude": "44", "longitude": "2.149174", "bikes": "6", "streetNumber": "61", "latitude": "41.378915", "slots": "12", "type": "BIKE", "id": "81", "streetName": "Vilamar\u00ed davant"}, {"status": "OPN", "nearbyStations": "67, 81, 111, 112", "altitude": "40", "longitude": "2.153799", "bikes": "19", "streetNumber": "72", "latitude": "41.379016", "slots": "8", "type": "BIKE", "id": "82", "streetName": "Rocafort"}, {"status": "OPN", "nearbyStations": "87, 89, 110, 111", "altitude": "45", "longitude": "2.153654", "bikes": "8", "streetNumber": "177", "latitude": "41.384075", "slots": "16", "type": "BIKE", "id": "83", "streetName": "Comte Borrell"}, {"status": "OPN", "nearbyStations": "78, 91, 110, 209", "altitude": "35", "longitude": "2.157577", "bikes": "10", "streetNumber": "152", "latitude": "41.383374", "slots": "7", "type": "BIKE", "id": "84", "streetName": "Diputaci\u00f3"}, {"status": "OPN", "nearbyStations": "112, 129, 235, 236", "altitude": "35", "longitude": "2.159046", "bikes": "3", "streetNumber": "146", "latitude": "41.375076", "slots": "18", "type": "BIKE", "id": "85", "streetName": "Paral\u00b7lel"}, {"status": "OPN", "nearbyStations": "85, 187, 235, 373", "altitude": "35", "longitude": "2.163", "bikes": "12", "streetNumber": "2", "latitude": "41.37544", "slots": "12", "type": "BIKE", "id": "86", "streetName": "Viladomat"}, {"status": "OPN", "nearbyStations": "67, 111, 191, 384", "altitude": "44", "longitude": "2.148506", "bikes": "9", "streetNumber": "41", "latitude": "41.383156", "slots": "10", "type": "BIKE", "id": "87", "streetName": "Mallorca"}, {"status": "OPN", "nearbyStations": "76, 109, 220, 350", "altitude": "59", "longitude": "2.150764", "bikes": "1", "streetNumber": "101", "latitude": "41.393547", "slots": "19", "type": "BIKE", "id": "88", "streetName": "Londres"}, {"status": "OPN", "nearbyStations": "76, 90, 110, 365", "altitude": "45", "longitude": "2.150169", "bikes": "6", "streetNumber": "101", "latitude": "41.387953", "slots": "16", "type": "BIKE", "id": "89", "streetName": "Rossell\u00f3"}, {"status": "OPN", "nearbyStations": "76, 89, 365, 385", "altitude": "45", "longitude": "2.150825", "bikes": "7", "streetNumber": "108", "latitude": "41.38834", "slots": "11", "type": "BIKE", "id": "90", "streetName": "Rossell\u00f3"}, {"status": "OPN", "nearbyStations": "70, 112, 113, 261", "altitude": "35", "longitude": "2.158403", "bikes": "26", "streetNumber": "119", "latitude": "41.380452", "slots": "4", "type": "BIKE", "id": "91", "streetName": "Comte Borrell"}, {"status": "OPN", "nearbyStations": "72, 73, 364, 374", "altitude": "50", "longitude": "2.160237", "bikes": "9", "streetNumber": "241", "latitude": "41.39386", "slots": "7", "type": "BIKE", "id": "92", "streetName": "Proven\u00e7a"}, {"status": "OPN", "nearbyStations": "94, 95, 96, 420", "altitude": "40", "longitude": "2.149786", "bikes": "2", "streetNumber": "375", "latitude": "41.375454", "slots": "15", "type": "BIKE", "id": "93", "streetName": "Gran Via"}, {"status": "OPN", "nearbyStations": "93, 95, 96, 420", "altitude": "40", "longitude": "2.149889", "bikes": "8", "streetNumber": "375", "latitude": "41.375619", "slots": "11", "type": "BIKE", "id": "94", "streetName": "Gran Via"}, {"status": "OPN", "nearbyStations": "93, 96, 97, 186", "altitude": "44", "longitude": "2.147734", "bikes": "24", "streetNumber": "103", "latitude": "41.376428", "slots": "4", "type": "BIKE", "id": "95", "streetName": "Tarragona"}, {"status": "OPN", "nearbyStations": "93, 95, 186, 420", "altitude": "61", "longitude": "2.148154", "bikes": "9", "streetNumber": "361", "latitude": "41.374152", "slots": "10", "type": "BIKE", "id": "96", "streetName": "Gran Via"}, {"status": "OPN", "nearbyStations": "81, 95, 100, 186", "altitude": "44", "longitude": "2.145389", "bikes": "7", "streetNumber": "141", "latitude": "41.378124", "slots": "10", "type": "BIKE", "id": "97", "streetName": "Tarragona"}, {"status": "OPN", "nearbyStations": "75, 99, 100, 421", "altitude": "44", "longitude": "2.141697", "bikes": "15", "streetNumber": "45", "latitude": "41.380658", "slots": "1", "type": "BIKE", "id": "98", "streetName": "Viriat"}, {"status": "OPN", "nearbyStations": "98, 100, 195, 421", "altitude": "44", "longitude": "2.141548", "bikes": "14", "streetNumber": "53", "latitude": "41.380632", "slots": "5", "type": "BIKE", "id": "99", "streetName": "Viriat"}, {"status": "OPN", "nearbyStations": "97, 98, 99, 384", "altitude": "44", "longitude": "2.14409", "bikes": "10", "streetNumber": "159", "latitude": "41.379135", "slots": "7", "type": "BIKE", "id": "100", "streetName": "Tarragona"}, {"status": "OPN", "nearbyStations": "74, 102, 319, 366", "altitude": "69", "longitude": "2.14321", "bikes": "10", "streetNumber": "602", "latitude": "41.39243", "slots": "16", "type": "BIKE", "id": "101", "streetName": "Av. Diagonal"}, {"status": "OPN", "nearbyStations": "74, 102, 319, 366", "altitude": "69", "longitude": "2.14213", "bikes": "2", "streetNumber": "612", "latitude": "41.39218", "slots": "22", "type": "BIKE", "id": "102", "streetName": "Av. Diagonal"}, {"status": "OPN", "nearbyStations": "26, 104, 127, 132", "altitude": "17", "longitude": "2.188217", "bikes": "18", "streetNumber": "629", "latitude": "41.409856", "slots": "2", "type": "BIKE", "id": "103", "streetName": "Arag\u00f3"}, {"status": "OPN", "nearbyStations": "26, 103, 127, 177", "altitude": "17", "longitude": "2.187365", "bikes": "16", "streetNumber": "621", "latitude": "41.410821", "slots": "10", "type": "BIKE", "id": "104", "streetName": "C/Val\u00e8ncia"}, {"status": "OPN", "nearbyStations": "65, 359, 363, 412", "altitude": "32", "longitude": "2.173424", "bikes": "5", "streetNumber": "9", "latitude": "41.389069", "slots": "13", "type": "BIKE", "id": "105", "streetName": "PL. Urquinaona"}, {"status": "OPN", "nearbyStations": "108, 122, 226, 231", "altitude": "59", "longitude": "2.162317", "bikes": "0", "streetNumber": "s/n", "latitude": "41.405587", "slots": "21", "type": "BIKE", "id": "106", "streetName": "Pl. Joanic"}, {"status": "OPN", "nearbyStations": "68, 219, 220, 223", "altitude": "59", "longitude": "2.153128", "bikes": "1", "streetNumber": "92", "latitude": "41.398298", "slots": "18", "type": "BIKE", "id": "107", "streetName": "Travessera de Gracia"}, {"status": "OPN", "nearbyStations": "29, 122, 224, 226", "altitude": "59", "longitude": "2.164961", "bikes": "1", "streetNumber": "10", "latitude": "41.402314", "slots": "19", "type": "BIKE", "id": "108", "streetName": "Ind\u00fastria"}, {"status": "OPN", "nearbyStations": "89, 101, 350, 365", "altitude": "51", "longitude": "2.14737", "bikes": "14", "streetNumber": "53", "latitude": "41.390981", "slots": "5", "type": "BIKE", "id": "109", "streetName": "C/ Londres"}, {"status": "OPN", "nearbyStations": "83, 84, 209, 385", "altitude": "45", "longitude": "2.154813", "bikes": "14", "streetNumber": "117", "latitude": "41.385554", "slots": "5", "type": "BIKE", "id": "110", "streetName": "Avda. Roma"}, {"status": "OPN", "nearbyStations": "81, 82, 83, 262", "altitude": "40", "longitude": "2.15308", "bikes": "5", "streetNumber": "134", "latitude": "41.38122", "slots": "12", "type": "BIKE", "id": "111", "streetName": "Calabria"}, {"status": "OPN", "nearbyStations": "82, 91, 94, 113", "altitude": "40", "longitude": "2.15725", "bikes": "4", "streetNumber": "49", "latitude": "41.377644", "slots": "13", "type": "BIKE", "id": "112", "streetName": "Floridablanca"}, {"status": "OPN", "nearbyStations": "70, 91, 112, 129", "altitude": "35", "longitude": "2.160801", "bikes": "16", "streetNumber": "60", "latitude": "41.378836", "slots": "7", "type": "BIKE", "id": "113", "streetName": "Comte Borrell"}, {"status": "OPN", "nearbyStations": "50, 54, 56, 425", "altitude": "24", "longitude": "2.173039", "bikes": "19", "streetNumber": "1", "latitude": "41.376801", "slots": "0", "type": "BIKE", "id": "114", "streetName": "Pl. Jean Genet"}, {"status": "OPN", "nearbyStations": "10, 14, 37, 401", "altitude": "1", "longitude": "2.18424", "bikes": "15", "streetNumber": "3", "latitude": "41.38377", "slots": "1", "type": "BIKE", "id": "115", "streetName": "Marqu\u00e9s d'Argentera"}, {"status": "OPN", "nearbyStations": "11, 13, 38, 39", "altitude": "11", "longitude": "2.191414", "bikes": "23", "streetNumber": "72", "latitude": "41.383718", "slots": "1", "type": "BIKE", "id": "116", "streetName": "Salvat Papasseit"}, {"status": "OPN", "nearbyStations": "46, 49, 163, 396", "altitude": "1", "longitude": "2.197024", "bikes": "11", "streetNumber": "12", "latitude": "41.390666", "slots": "8", "type": "BIKE", "id": "117", "streetName": "Rosa Sensat"}, {"status": "OPN", "nearbyStations": "7, 8, 45, 149", "altitude": "18", "longitude": "2.187764", "bikes": "23", "streetNumber": "59", "latitude": "41.392425", "slots": "4", "type": "BIKE", "id": "118", "streetName": "Sardenya"}, {"status": "OPN", "nearbyStations": "3, 372, 387, 426", "altitude": "21", "longitude": "2.182802", "bikes": "12", "streetNumber": "122", "latitude": "41.396632", "slots": "5", "type": "BIKE", "id": "119", "streetName": "Ausi\u00e0s March"}, {"status": "OPN", "nearbyStations": "18, 22, 121, 370", "altitude": "28", "longitude": "2.176515", "bikes": "4", "streetNumber": "278", "latitude": "41.404666", "slots": "14", "type": "BIKE", "id": "120", "streetName": "Lepant"}, {"status": "OPN", "nearbyStations": "18, 26, 120, 371", "altitude": "28", "longitude": "2.178689", "bikes": "2", "streetNumber": "258", "latitude": "41.406293", "slots": "16", "type": "BIKE", "id": "121", "streetName": "Castillejos"}, {"status": "OPN", "nearbyStations": "19, 106, 108, 277", "altitude": "59", "longitude": "2.16624", "bikes": "0", "streetNumber": "344", "latitude": "41.405435", "slots": "19", "type": "BIKE", "id": "122", "streetName": "N\u00e0pols"}, {"status": "OPN", "nearbyStations": "27, 189, 224, 362", "altitude": "42", "longitude": "2.167798", "bikes": "2", "streetNumber": "126", "latitude": "41.397411", "slots": "16", "type": "BIKE", "id": "123", "streetName": "Girona"}, {"status": "OPN", "nearbyStations": "31, 32, 41, 400", "altitude": "5", "longitude": "2.187808", "bikes": "9", "streetNumber": "s/n", "latitude": "41.370297", "slots": "16", "type": "BIKE", "id": "124", "streetName": "Passeig Joan de Borb\u00f3"}, {"status": "OPN", "nearbyStations": "12, 13, 69, 398", "altitude": "1", "longitude": "2.195595", "bikes": "6", "streetNumber": "31", "latitude": "41.384426", "slots": "12", "type": "BIKE", "id": "125", "streetName": "Passeig Maritim"}, {"status": "OPN", "nearbyStations": "37, 115, 377, 402", "altitude": "5", "longitude": "2.182243", "bikes": "20", "streetNumber": "", "latitude": "41.380641", "slots": "0", "type": "BIKE", "id": "126", "streetName": "Passeig de Colom"}, {"status": "OPN", "nearbyStations": "103, 104, 128, 238", "altitude": "17", "longitude": "2.19142", "bikes": "21", "streetNumber": "661", "latitude": "41.412322", "slots": "4", "type": "BIKE", "id": "127", "streetName": "Arag\u00f3"}, {"status": "OPN", "nearbyStations": "127, 130, 135, 238", "altitude": "13", "longitude": "2.19581", "bikes": "23", "streetNumber": "43", "latitude": "41.415581", "slots": "5", "type": "BIKE", "id": "128", "streetName": "Rambla Guip\u00fascoa"}, {"status": "OPN", "nearbyStations": "91, 112, 113, 148", "altitude": "35", "longitude": "2.16124", "bikes": "4", "streetNumber": "46", "latitude": "41.37709", "slots": "20", "type": "BIKE", "id": "129", "streetName": "Manso"}, {"status": "OPN", "nearbyStations": "127, 128, 131, 139", "altitude": "9", "longitude": "2.201573", "bikes": "5", "streetNumber": "103", "latitude": "41.419905", "slots": "17", "type": "BIKE", "id": "130", "streetName": "Rambla Guip\u00fascoa"}, {"status": "OPN", "nearbyStations": "130, 139, 316, 317", "altitude": "9", "longitude": "2.206036", "bikes": "14", "streetNumber": "158", "latitude": "41.422808", "slots": "12", "type": "BIKE", "id": "131", "streetName": "Rambla Guip\u00fascoa"}, {"status": "OPN", "nearbyStations": "42, 103, 133, 141", "altitude": "13", "longitude": "2.192173", "bikes": "21", "streetNumber": "", "latitude": "41.408439", "slots": "4", "type": "BIKE", "id": "132", "streetName": "Pl. Valent\u00ed Amirall"}, {"status": "OPN", "nearbyStations": "42, 43, 132, 141", "altitude": "16", "longitude": "2.192819", "bikes": "6", "streetNumber": "902", "latitude": "41.407411", "slots": "9", "type": "BIKE", "id": "133", "streetName": "Gran V\u00eda"}, {"status": "OPN", "nearbyStations": "135, 136, 141, 145", "altitude": "13", "longitude": "2.198126", "bikes": "7", "streetNumber": "990", "latitude": "41.411315", "slots": "10", "type": "BIKE", "id": "134", "streetName": "Gran Via"}, {"status": "OPN", "nearbyStations": "136, 137, 141", "altitude": "13", "longitude": "2.197936", "bikes": "10", "streetNumber": "981", "latitude": "41.411908", "slots": "10", "type": "BIKE", "id": "135", "streetName": "Gran V\u00eda"}, {"status": "OPN", "nearbyStations": "137, 138, 146", "altitude": "9", "longitude": "2.201734", "bikes": "22", "streetNumber": "1062", "latitude": "41.414226", "slots": "4", "type": "BIKE", "id": "136", "streetName": "Gran V\u00eda"}, {"status": "OPN", "nearbyStations": "130, 136, 138, 146", "altitude": "9", "longitude": "2.201538", "bikes": "1", "streetNumber": "1041", "latitude": "41.414758", "slots": "25", "type": "BIKE", "id": "137", "streetName": "Gran V\u00eda, 1041/ Selva de Mar"}, {"status": "OPN", "nearbyStations": "136, 137, 139, 147", "altitude": "9", "longitude": "2.205397", "bikes": "19", "streetNumber": "1118", "latitude": "41.416966", "slots": "5", "type": "BIKE", "id": "138", "streetName": "Gran V\u00eda"}, {"status": "OPN", "nearbyStations": "130, 131, 138, 147", "altitude": "9", "longitude": "2.206023", "bikes": "12", "streetNumber": "1131", "latitude": "41.418035", "slots": "10", "type": "BIKE", "id": "139", "streetName": "Gran V\u00eda"}, {"status": "OPN", "nearbyStations": "82, 91, 111, 262", "altitude": "41", "longitude": "2.15614", "bikes": "13", "streetNumber": "122", "latitude": "41.38063", "slots": "9", "type": "BIKE", "id": "140", "streetName": "Viladomat"}, {"status": "OPN", "nearbyStations": "42, 132, 133, 135", "altitude": "13", "longitude": "2.194896", "bikes": "15", "streetNumber": "940", "latitude": "41.40902", "slots": "11", "type": "BIKE", "id": "141", "streetName": "Gran Via "}, {"status": "OPN", "nearbyStations": "42, 44, 143, 211", "altitude": "16", "longitude": "2.192511", "bikes": "16", "streetNumber": "104", "latitude": "41.400503", "slots": "17", "type": "BIKE", "id": "142", "streetName": "Sancho de \u00c1vila"}, {"status": "OPN", "nearbyStations": "42, 144, 152, 153, 428", "altitude": "16", "longitude": "2.19606", "bikes": "24", "streetNumber": "170", "latitude": "41.40325", "slots": "1", "type": "BIKE", "id": "143", "streetName": "Sancho de \u00c1vila"}, {"status": "OPN", "nearbyStations": "42, 143, 150, 286", "altitude": "16", "longitude": "2.19764", "bikes": "22", "streetNumber": "28", "latitude": "41.40562", "slots": "1", "type": "BIKE", "id": "144", "streetName": "Castella"}, {"status": "OPN", "nearbyStations": "135, 146, 150, 156", "altitude": "9", "longitude": "2.202904", "bikes": "21", "streetNumber": "301", "latitude": "41.40982", "slots": "4", "type": "BIKE", "id": "145", "streetName": "Pere IV"}, {"status": "OPN", "nearbyStations": "136, 137, 138, 145", "altitude": "9", "longitude": "2.204841", "bikes": "0", "streetNumber": "383", "latitude": "41.412453", "slots": "27", "type": "BIKE", "id": "146", "streetName": "Pere IV"}, {"status": "OPN", "nearbyStations": "146, 157, 158, 159", "altitude": "5", "longitude": "2.212658", "bikes": "11", "streetNumber": "79", "latitude": "41.416018", "slots": "12", "type": "BIKE", "id": "147", "streetName": "Rambla Prim"}, {"status": "OPN", "nearbyStations": "70, 113, 388, 415", "altitude": "79", "longitude": "2.163324", "bikes": "18", "streetNumber": "79", "latitude": "41.378436", "slots": "0", "type": "BIKE", "id": "148", "streetName": "Ronda Sant Pau"}, {"status": "OPN", "nearbyStations": "45, 48, 118, 409", "altitude": "11", "longitude": "2.192958", "bikes": "26", "streetNumber": "57B", "latitude": "41.395905", "slots": "1", "type": "BIKE", "id": "149", "streetName": "Pujades"}, {"status": "OPN", "nearbyStations": "144, 145, 154, 155", "altitude": "10", "longitude": "2.203112", "bikes": "14", "streetNumber": "124", "latitude": "41.406549", "slots": "11", "type": "BIKE", "id": "150", "streetName": "Espronceda"}, {"status": "OPN", "nearbyStations": "152, 153, 211, 393, 428", "altitude": "6", "longitude": "2.19719", "bikes": "20", "streetNumber": "462", "latitude": "41.40065", "slots": "2", "type": "BIKE", "id": "151", "streetName": "Pallars"}, {"status": "OPN", "nearbyStations": "143, 149, 153, 393", "altitude": "11", "longitude": "2.197421", "bikes": "23", "streetNumber": "121", "latitude": "41.39925", "slots": "3", "type": "BIKE", "id": "152", "streetName": "Pujades"}, {"status": "OPN", "nearbyStations": "152, 154, 165, 393, 428", "altitude": "10", "longitude": "2.200769", "bikes": "22", "streetNumber": "173", "latitude": "41.401778", "slots": "4", "type": "BIKE", "id": "153", "streetName": "Pujades"}, {"status": "OPN", "nearbyStations": "141, 153, 165, 382", "altitude": "10", "longitude": "2.201656", "bikes": "19", "streetNumber": "191", "latitude": "41.402454", "slots": "5", "type": "BIKE", "id": "154", "streetName": "Pujades"}, {"status": "OPN", "nearbyStations": "150, 156, 162, 382", "altitude": "10", "longitude": "2.207602", "bikes": "8", "streetNumber": "311", "latitude": "41.406977", "slots": "24", "type": "BIKE", "id": "155", "streetName": "Pujades"}, {"status": "OPN", "nearbyStations": "145, 155, 157, 159", "altitude": "5", "longitude": "2.208551", "bikes": "13", "streetNumber": "82", "latitude": "41.408923", "slots": "12", "type": "BIKE", "id": "156", "streetName": "Diagonal"}, {"status": "OPN", "nearbyStations": "35, 147, 158, 159, 160", "altitude": "5", "longitude": "2.216337", "bikes": "11", "streetNumber": "396", "latitude": "41.411636", "slots": "15", "type": "BIKE", "id": "157", "streetName": "C/Llull"}, {"status": "OPN", "nearbyStations": "35, 156, 157, 159, 160", "altitude": "1", "longitude": "2.218546", "bikes": "9", "streetNumber": "19", "latitude": "41.411741", "slots": "16", "type": "BIKE", "id": "158", "streetName": "Rambla de Prim"}, {"status": "OPN", "nearbyStations": "35, 156, 157, 158, 160", "altitude": "5", "longitude": "2.216381", "bikes": "0", "streetNumber": "26", "latitude": "41.410916", "slots": "28", "type": "BIKE", "id": "159", "streetName": "Avda. Diagonal"}, {"status": "OPN", "nearbyStations": "35, 156, 157, 158, 159", "altitude": "1", "longitude": "2.219377", "bikes": "10", "streetNumber": "1", "latitude": "41.411026", "slots": "18", "type": "BIKE", "id": "160", "streetName": "Avda. d'Eduard Maristany"}, {"status": "OPN", "nearbyStations": "49, 149, 163, 409", "altitude": "11", "longitude": "2.196308", "bikes": "22", "streetNumber": "91", "latitude": "41.395009", "slots": "3", "type": "BIKE", "id": "161", "streetName": "Ramon Turro"}, {"status": "OPN", "nearbyStations": "155, 166, 167, 168", "altitude": "0", "longitude": "2.208436", "bikes": "22", "streetNumber": "292", "latitude": "41.403908", "slots": "5", "type": "BIKE", "id": "162", "streetName": "Ramon Turro"}, {"status": "OPN", "nearbyStations": "49, 117, 161, 172", "altitude": "11", "longitude": "2.20077", "bikes": "2", "streetNumber": "202", "latitude": "41.3942", "slots": "24", "type": "BIKE", "id": "163", "streetName": "Avda. Icaria"}, {"status": "OPN", "nearbyStations": "20, 21, 177, 280", "altitude": "33", "longitude": "2.178037", "bikes": "21", "streetNumber": "379", "latitude": "41.41194", "slots": "3", "type": "BIKE", "id": "164", "streetName": "Independ\u00e8ncia"}, {"status": "OPN", "nearbyStations": "153, 154, 166, 173", "altitude": "0", "longitude": "2.204253", "bikes": "11", "streetNumber": "221", "latitude": "41.399196", "slots": "12", "type": "BIKE", "id": "165", "streetName": "Carrer del Doctor Trueta"}, {"status": "OPN", "nearbyStations": "162, 165, 173, 174", "altitude": "10", "longitude": "2.207883", "bikes": "1", "streetNumber": "116", "latitude": "41.401038", "slots": "25", "type": "BIKE", "id": "166", "streetName": "Passeig de Taulat"}, {"status": "OPN", "nearbyStations": "162, 166, 168, 176", "altitude": "0", "longitude": "2.211166", "bikes": "4", "streetNumber": "188", "latitude": "41.403446", "slots": "19", "type": "BIKE", "id": "167", "streetName": "Passeig de Taulat"}, {"status": "OPN", "nearbyStations": "162, 167, 176, 178", "altitude": "0", "longitude": "2.213518", "bikes": "7", "streetNumber": "238", "latitude": "41.405216", "slots": "20", "type": "BIKE", "id": "168", "streetName": "Passeig de Taulat"}, {"status": "OPN", "nearbyStations": "11, 170, 172, 397", "altitude": "0", "longitude": "2.200055", "bikes": "14", "streetNumber": "40", "latitude": "41.389896", "slots": "10", "type": "BIKE", "id": "169", "streetName": "Avda. Litoral"}, {"status": "OPN", "nearbyStations": "117, 169, 172, 397", "altitude": "1", "longitude": "2.199934", "bikes": "8", "streetNumber": "40", "latitude": "41.389732", "slots": "17", "type": "BIKE", "id": "170", "streetName": "Avda. Litoral"}, {"status": "OPN", "nearbyStations": "163, 169, 170, 172", "altitude": "0", "longitude": "2.203699", "bikes": "14", "streetNumber": "83", "latitude": "41.391986", "slots": "12", "type": "BIKE", "id": "171", "streetName": "Passeig Mar\u00edtim de la Nova Ic\u00e0ria"}, {"status": "OPN", "nearbyStations": "163, 169, 170, 171", "altitude": "0", "longitude": "2.203436", "bikes": "12", "streetNumber": "83", "latitude": "41.391831", "slots": "14", "type": "BIKE", "id": "172", "streetName": "Passeig Mar\u00edtim de la Nova Ic\u00e0ria"}, {"status": "OPN", "nearbyStations": "166, 171, 174, 190", "altitude": "0", "longitude": "2.208982", "bikes": "16", "streetNumber": "84", "latitude": "41.398027", "slots": "6", "type": "BIKE", "id": "173", "streetName": "Avda. Litoral"}, {"status": "OPN", "nearbyStations": "166, 173, 176, 178", "altitude": "0", "longitude": "2.210461", "bikes": "13", "streetNumber": "21", "latitude": "41.40061", "slots": "12", "type": "BIKE", "id": "174", "streetName": "Passeig de Garcia F\u00e0ria"}, {"status": "OPN", "nearbyStations": "155, 156, 162, 167", "altitude": "10", "longitude": "2.20956", "bikes": "3", "streetNumber": "309", "latitude": "41.40666", "slots": "21", "type": "BIKE", "id": "175", "streetName": "Llull / Proven\u00e7als"}, {"status": "OPN", "nearbyStations": "167, 168, 174, 178", "altitude": "0", "longitude": "2.212641", "bikes": "0", "streetNumber": "37", "latitude": "41.402541", "slots": "24", "type": "BIKE", "id": "176", "streetName": "Passeig de Garcia F\u00e0ria"}, {"status": "OPN", "nearbyStations": "20, 121, 164, 280", "altitude": "0", "longitude": "2.181119", "bikes": "2", "streetNumber": "557", "latitude": "41.411089", "slots": "24", "type": "BIKE", "id": "177", "streetName": "Rossell\u00f3"}, {"status": "OPN", "nearbyStations": "162, 166, 167, 168", "altitude": "0", "longitude": "2.216212", "bikes": "1", "streetNumber": "85", "latitude": "41.405389", "slots": "24", "type": "BIKE", "id": "178", "streetName": "Passeig de Garcia F\u00e0ria"}, {"status": "OPN", "nearbyStations": "184, 351, 352, 404", "altitude": "48", "longitude": "2.13677", "bikes": "21", "streetNumber": "244", "latitude": "41.363511", "slots": "0", "type": "BIKE", "id": "179", "streetName": "Pg. Zona Franca"}, {"status": "OPN", "nearbyStations": "179, 181, 182, 183", "altitude": "50", "longitude": "2.13926", "bikes": "23", "streetNumber": "181", "latitude": "41.36778", "slots": "3", "type": "BIKE", "id": "180", "streetName": "Gran Via"}, {"status": "OPN", "nearbyStations": "179, 180, 182, 183", "altitude": "50", "longitude": "2.13911", "bikes": "24", "streetNumber": "180", "latitude": "41.36766", "slots": "3", "type": "BIKE", "id": "181", "streetName": "Gran Via"}, {"status": "OPN", "nearbyStations": "96, 180, 183, 420", "altitude": "61", "longitude": "2.143882", "bikes": "20", "streetNumber": "273", "latitude": "41.371455", "slots": "3", "type": "BIKE", "id": "182", "streetName": "Gran Via"}, {"status": "OPN", "nearbyStations": "181, 182, 185, 420", "altitude": "61", "longitude": "2.141875", "bikes": "16", "streetNumber": "1", "latitude": "41.372338", "slots": "10", "type": "BIKE", "id": "183", "streetName": "Gav\u00e0"}, {"status": "OPN", "nearbyStations": "179, 180, 185, 404", "altitude": "50", "longitude": "2.134088", "bikes": "18", "streetNumber": "22", "latitude": "41.367504", "slots": "8", "type": "BIKE", "id": "184", "streetName": "Quetzal"}, {"status": "OPN", "nearbyStations": "180, 181, 184, 404", "altitude": "50", "longitude": "2.138994", "bikes": "3", "streetNumber": "81", "latitude": "41.37046", "slots": "16", "type": "BIKE", "id": "185", "streetName": "Gav\u00e0"}, {"status": "OPN", "nearbyStations": "95, 96, 210, 420", "altitude": "44", "longitude": "2.143812", "bikes": "18", "streetNumber": "6", "latitude": "41.375571", "slots": "8", "type": "BIKE", "id": "186", "streetName": "Consell de Cent"}, {"status": "OPN", "nearbyStations": "50, 54, 416, 427", "altitude": "24", "longitude": "2.169811", "bikes": "18", "streetNumber": "89", "latitude": "41.376858", "slots": "0", "type": "BIKE", "id": "187", "streetName": "Carrer de Sant Pau"}, {"status": "OPN", "nearbyStations": "210, 313, 354, 421", "altitude": "45", "longitude": "2.135543", "bikes": "19", "streetNumber": "0", "latitude": "41.375471", "slots": "5", "type": "BIKE", "id": "188", "streetName": "Pl. Sants (Ps. S. Antoni)"}, {"status": "OPN", "nearbyStations": "25, 27, 123, 224", "altitude": "50", "longitude": "2.166163", "bikes": "13", "streetNumber": "130", "latitude": "41.396918", "slots": "13", "type": "BIKE", "id": "189", "streetName": "Bruc"}, {"status": "OPN", "nearbyStations": "165, 171, 172, 173", "altitude": "0", "longitude": "2.207803", "bikes": "18", "streetNumber": "72", "latitude": "41.39606", "slots": "9", "type": "BIKE", "id": "190", "streetName": "Avinguda Litoral"}, {"status": "OPN", "nearbyStations": "81, 87, 111, 384", "altitude": "44", "longitude": "2.149094", "bikes": "12", "streetNumber": "167", "latitude": "41.382564", "slots": "15", "type": "BIKE", "id": "191", "streetName": "Rocafort"}, {"status": "OPN", "nearbyStations": "188, 193, 194, 314", "altitude": "46", "longitude": "2.132802", "bikes": "10", "streetNumber": "85", "latitude": "41.379814", "slots": "10", "type": "BIKE", "id": "192", "streetName": "Joan G\u00fcell"}, {"status": "OPN", "nearbyStations": "192, 194, 199, 312", "altitude": "46", "longitude": "2.128912", "bikes": "3", "streetNumber": "1", "latitude": "41.381311", "slots": "24", "type": "BIKE", "id": "193", "streetName": "Figols"}, {"status": "OPN", "nearbyStations": "192, 193, 196, 200", "altitude": "46", "longitude": "2.131652", "bikes": "2", "streetNumber": "139", "latitude": "41.382258", "slots": "22", "type": "BIKE", "id": "194", "streetName": "Joan G\u00fcell"}, {"status": "OPN", "nearbyStations": "192, 194, 196, 367", "altitude": "45", "longitude": "2.136186", "bikes": "6", "streetNumber": "148", "latitude": "41.38234", "slots": "20", "type": "BIKE", "id": "195", "streetName": "Comtes de Bell-lloc"}, {"status": "OPN", "nearbyStations": "195, 198, 200, 367", "altitude": "57", "longitude": "2.134698", "bikes": "1", "streetNumber": "216", "latitude": "41.384522", "slots": "24", "type": "BIKE", "id": "196", "streetName": "Comte Bell-lloch"}, {"status": "OPN", "nearbyStations": "75, 196, 201, 367", "altitude": "57", "longitude": "2.140959", "bikes": "3", "streetNumber": "227", "latitude": "41.386984", "slots": "24", "type": "BIKE", "id": "197", "streetName": "Enten\u00e7a"}, {"status": "OPN", "nearbyStations": "196, 200, 201, 205", "altitude": "60", "longitude": "2.133282", "bikes": "0", "streetNumber": "198", "latitude": "41.38512", "slots": "27", "type": "BIKE", "id": "198", "streetName": "Vallespir"}, {"status": "OPN", "nearbyStations": "193, 200, 202, 312", "altitude": "46", "longitude": "2.126933", "bikes": "2", "streetNumber": "2", "latitude": "41.38182", "slots": "23", "type": "BIKE", "id": "199", "streetName": "Mej\u00eda Lequerica"}, {"status": "OPN", "nearbyStations": "193, 194, 196, 198", "altitude": "60", "longitude": "2.131273", "bikes": "1", "streetNumber": "1", "latitude": "41.383756", "slots": "23", "type": "BIKE", "id": "200", "streetName": "Can bruixa"}, {"status": "OPN", "nearbyStations": "198, 206, 207, 208", "altitude": "57", "longitude": "2.135826", "bikes": "21", "streetNumber": "56", "latitude": "41.388455", "slots": "10", "type": "BIKE", "id": "201", "streetName": "D\u00e9u i Mata"}, {"status": "OPN", "nearbyStations": "199, 200, 203, 205", "altitude": "60", "longitude": "2.128737", "bikes": "0", "streetNumber": "20", "latitude": "41.385331", "slots": "27", "type": "BIKE", "id": "202", "streetName": "Carrer de les Corts"}, {"status": "OPN", "nearbyStations": "204, 205, 212, 284", "altitude": "60", "longitude": "2.128503", "bikes": "1", "streetNumber": "664", "latitude": "41.388742", "slots": "32", "type": "BIKE", "id": "203", "streetName": "Avda. Diagonal"}, {"status": "OPN", "nearbyStations": "202, 203, 205, 212", "altitude": "60", "longitude": "2.125593", "bikes": "3", "streetNumber": "668", "latitude": "41.388011", "slots": "29", "type": "BIKE", "id": "204", "streetName": "Avda. Diagonal"}, {"status": "OPN", "nearbyStations": "198, 202, 203, 284", "altitude": "60", "longitude": "2.130838", "bikes": "2", "streetNumber": "25", "latitude": "41.387465", "slots": "29", "type": "BIKE", "id": "205", "streetName": "Europa "}, {"status": "OPN", "nearbyStations": "201, 207, 208, 284", "altitude": "60", "longitude": "2.13284", "bikes": "24", "streetNumber": "650", "latitude": "41.389845", "slots": "8", "type": "BIKE", "id": "206", "streetName": "Avda. Diagonal"}, {"status": "OPN", "nearbyStations": "201, 204, 206, 208", "altitude": "57", "longitude": "2.136665", "bikes": "6", "streetNumber": "634", "latitude": "41.390828", "slots": "15", "type": "BIKE", "id": "207", "streetName": "Avda. Diagonal"}, {"status": "OPN", "nearbyStations": "201, 206, 207, 366", "altitude": "57", "longitude": "2.139116", "bikes": "32", "streetNumber": "630", "latitude": "41.391451", "slots": "0", "type": "BIKE", "id": "208", "streetName": "Avda. Diagonal"}, {"status": "OPN", "nearbyStations": "71, 78, 84, 261", "altitude": "41", "longitude": "2.161004", "bikes": "14", "streetNumber": "200", "latitude": "41.385755", "slots": "11", "type": "BIKE", "id": "209", "streetName": "Diputaci\u00f3"}, {"status": "OPN", "nearbyStations": "183, 185, 186, 421", "altitude": "50", "longitude": "2.142356", "bikes": "9", "streetNumber": "18", "latitude": "41.37453", "slots": "17", "type": "BIKE", "id": "210", "streetName": "Vilardell"}, {"status": "OPN", "nearbyStations": "16, 44, 48, 142", "altitude": "18", "longitude": "2.190291", "bikes": "24", "streetNumber": "60", "latitude": "41.398848", "slots": "7", "type": "BIKE", "id": "211", "streetName": "Sancho de \u00c1vila"}, {"status": "OPN", "nearbyStations": "203, 206, 284, 325", "altitude": "82", "longitude": "2.130319", "bikes": "6", "streetNumber": "212", "latitude": "41.392173", "slots": "19", "type": "BIKE", "id": "212", "streetName": "Numancia"}, {"status": "OPN", "nearbyStations": "207, 208, 214, 215", "altitude": "79", "longitude": "2.135586", "bikes": "21", "streetNumber": "9", "latitude": "41.392485", "slots": "12", "type": "BIKE", "id": "213", "streetName": "Doctor Fleming"}, {"status": "OPN", "nearbyStations": "207, 208, 212, 213", "altitude": "79", "longitude": "2.13496", "bikes": "2", "streetNumber": "19", "latitude": "41.393976", "slots": "29", "type": "BIKE", "id": "214", "streetName": "Doctor Fleming"}, {"status": "OPN", "nearbyStations": "102, 213, 214, 324", "altitude": "79", "longitude": "2.138637", "bikes": "1", "streetNumber": "6", "latitude": "41.394527", "slots": "23", "type": "BIKE", "id": "215", "streetName": "Carrer de Francesc P\u00e9rez Cabrero"}, {"status": "OPN", "nearbyStations": "101, 217, 219, 319", "altitude": "69", "longitude": "2.144534", "bikes": "9", "streetNumber": "131", "latitude": "41.396809", "slots": "17", "type": "BIKE", "id": "216", "streetName": "Madrazo"}, {"status": "OPN", "nearbyStations": "102, 216, 219, 319", "altitude": "69", "longitude": "2.143924", "bikes": "1", "streetNumber": "24", "latitude": "41.398463", "slots": "23", "type": "BIKE", "id": "217", "streetName": "Rector Ubach"}, {"status": "OPN", "nearbyStations": "30, 43, 369, 371", "altitude": "28", "longitude": "2.183203", "bikes": "17", "streetNumber": "566", "latitude": "41.404114", "slots": "8", "type": "BIKE", "id": "218", "streetName": "Consell de Cent"}, {"status": "OPN", "nearbyStations": "107, 216, 217, 220", "altitude": "69", "longitude": "2.147585", "bikes": "2", "streetNumber": "74", "latitude": "41.397812", "slots": "23", "type": "BIKE", "id": "219", "streetName": "Carre Laforja"}, {"status": "OPN", "nearbyStations": "68, 88, 107, 219", "altitude": "59", "longitude": "2.151482", "bikes": "0", "streetNumber": "19", "latitude": "41.396229", "slots": "26", "type": "BIKE", "id": "220", "streetName": "Tuset"}, {"status": "OPN", "nearbyStations": "107, 222, 229, 230", "altitude": "71", "longitude": "2.152519", "bikes": "6", "streetNumber": "155", "latitude": "41.402535", "slots": "18", "type": "BIKE", "id": "221", "streetName": "Gran de Gr\u00e0cia"}, {"status": "OPN", "nearbyStations": "107, 221, 226, 229", "altitude": "71", "longitude": "2.157483", "bikes": "1", "streetNumber": "1", "latitude": "41.40124", "slots": "23", "type": "BIKE", "id": "222", "streetName": "Carrer del Can\u00f3"}, {"status": "OPN", "nearbyStations": "68, 224, 225, 374", "altitude": "50", "longitude": "2.159865", "bikes": "6", "streetNumber": "14", "latitude": "41.398311", "slots": "25", "type": "BIKE", "id": "223", "streetName": "Carrer de Bonavista"}, {"status": "OPN", "nearbyStations": "27, 108, 123, 189", "altitude": "50", "longitude": "2.16644", "bikes": "1", "streetNumber": "158", "latitude": "41.40011", "slots": "19", "type": "BIKE", "id": "224", "streetName": "Bail\u00e8n"}, {"status": "OPN", "nearbyStations": "83, 87, 89, 191", "altitude": "44", "longitude": "2.15057", "bikes": "3", "streetNumber": "84", "latitude": "41.38482", "slots": "21", "type": "BIKE", "id": "225", "streetName": "Mallorca"}, {"status": "OPN", "nearbyStations": "106, 108, 122, 231", "altitude": "59", "longitude": "2.161096", "bikes": "2", "streetNumber": "1", "latitude": "41.403465", "slots": "24", "type": "BIKE", "id": "226", "streetName": "Montmany"}, {"status": "OPN", "nearbyStations": "106, 228, 231, 357", "altitude": "59", "longitude": "2.158678", "bikes": "0", "streetNumber": "102", "latitude": "41.407837", "slots": "23", "type": "BIKE", "id": "227", "streetName": "Torrent de Les Flors"}, {"status": "OPN", "nearbyStations": "106, 227, 229, 230", "altitude": "71", "longitude": "2.155794", "bikes": "5", "streetNumber": "5", "latitude": "41.40694", "slots": "20", "type": "BIKE", "id": "228", "streetName": "Pl. Del Nord"}, {"status": "OPN", "nearbyStations": "106, 226, 227, 228", "altitude": "71", "longitude": "2.156874", "bikes": "2", "streetNumber": "2", "latitude": "41.405107", "slots": "24", "type": "BIKE", "id": "229", "streetName": "Carrer de la Santacreu"}, {"status": "OPN", "nearbyStations": "221, 222, 228, 229", "altitude": "71", "longitude": "2.151633", "bikes": "3", "streetNumber": "16", "latitude": "41.405986", "slots": "24", "type": "BIKE", "id": "230", "streetName": "C. De Nil Fabra"}, {"status": "OPN", "nearbyStations": "106, 122, 227, 276", "altitude": "87", "longitude": "2.16327", "bikes": "15", "streetNumber": "59", "latitude": "41.409115", "slots": "11", "type": "BIKE", "id": "231", "streetName": "C. Del Secretari Coloma"}, {"status": "OPN", "nearbyStations": "50, 233, 234, 427", "altitude": "1", "longitude": "2.171002", "bikes": "12", "streetNumber": "45", "latitude": "41.373509", "slots": "13", "type": "BIKE", "id": "232", "streetName": "Vil\u00e0 i Vil\u00e0"}, {"status": "OPN", "nearbyStations": "50, 232, 234, 427", "altitude": "1", "longitude": "2.166871", "bikes": "0", "streetNumber": "164", "latitude": "41.371965", "slots": "26", "type": "BIKE", "id": "233", "streetName": "Nou de la Rambla"}, {"status": "OPN", "nearbyStations": "85, 233, 235, 236", "altitude": "44", "longitude": "2.162166", "bikes": "1", "streetNumber": "30", "latitude": "41.371515", "slots": "25", "type": "BIKE", "id": "234", "streetName": "Passeig de l'Exposici\u00f3"}, {"status": "OPN", "nearbyStations": "85, 129, 234, 236", "altitude": "44", "longitude": "2.161632", "bikes": "8", "streetNumber": "64", "latitude": "41.373764", "slots": "18", "type": "BIKE", "id": "235", "streetName": "Elkano"}, {"status": "OPN", "nearbyStations": "85, 94, 235, 237", "altitude": "67", "longitude": "2.156554", "bikes": "3", "streetNumber": "42", "latitude": "41.372162", "slots": "21", "type": "BIKE", "id": "236", "streetName": "Carrer de la Fran\u00e7a Xica"}, {"status": "OPN", "nearbyStations": "85, 93, 234, 236", "altitude": "67", "longitude": "2.154471", "bikes": "0", "streetNumber": "4", "latitude": "41.372891", "slots": "23", "type": "BIKE", "id": "237", "streetName": "Rius i Taulet"}, {"status": "OPN", "nearbyStations": "127, 240, 248, 289", "altitude": "17", "longitude": "2.190986", "bikes": "24", "streetNumber": "298", "latitude": "41.415684", "slots": "2", "type": "BIKE", "id": "238", "streetName": "Espronceda"}, {"status": "OPN", "nearbyStations": "240, 241, 248, 315", "altitude": "18", "longitude": "2.184712", "bikes": "0", "streetNumber": "344", "latitude": "41.417315", "slots": "26", "type": "BIKE", "id": "239", "streetName": "Ind\u00fastria"}, {"status": "OPN", "nearbyStations": "128, 238, 248, 289", "altitude": "18", "longitude": "2.187558", "bikes": "23", "streetNumber": "32", "latitude": "41.417763", "slots": "2", "type": "BIKE", "id": "240", "streetName": "Josep Estivill"}, {"status": "OPN", "nearbyStations": "239, 240, 248, 315", "altitude": "37", "longitude": "2.181234", "bikes": "11", "streetNumber": "22", "latitude": "41.419858", "slots": "11", "type": "BIKE", "id": "241", "streetName": "Pl. Maragall"}, {"status": "OPN", "nearbyStations": "241, 243, 244, 291", "altitude": "37", "longitude": "2.177284", "bikes": "18", "streetNumber": "1", "latitude": "41.424451", "slots": "6", "type": "BIKE", "id": "242", "streetName": "Ramon Alb\u00f3"}, {"status": "OPN", "nearbyStations": "241, 242, 244, 247", "altitude": "37", "longitude": "2.181298", "bikes": "1", "streetNumber": "1", "latitude": "41.423939", "slots": "21", "type": "BIKE", "id": "243", "streetName": "Alenxadre Gal\u00ed"}, {"status": "OPN", "nearbyStations": "242, 243, 251, 300", "altitude": "47", "longitude": "2.178511", "bikes": "14", "streetNumber": "214", "latitude": "41.426896", "slots": "12", "type": "BIKE", "id": "244", "streetName": "Felip II"}, {"status": "OPN", "nearbyStations": "247, 249, 250, 251", "altitude": "18", "longitude": "2.185734", "bikes": "22", "streetNumber": "116", "latitude": "41.422561", "slots": "9", "type": "BIKE", "id": "246", "streetName": "Juan de Garay"}, {"status": "OPN", "nearbyStations": "241, 243, 246, 251", "altitude": "18", "longitude": "2.185171", "bikes": "16", "streetNumber": "43", "latitude": "41.422811", "slots": "10", "type": "BIKE", "id": "247", "streetName": "Olesa"}, {"status": "OPN", "nearbyStations": "128, 238, 240, 423", "altitude": "18", "longitude": "2.190374", "bikes": "24", "streetNumber": "31", "latitude": "41.418208", "slots": "0", "type": "BIKE", "id": "248", "streetName": "Pal\u00e8ncia"}, {"status": "OPN", "nearbyStations": "246, 250, 251, 391", "altitude": "18", "longitude": "2.188997", "bikes": "11", "streetNumber": "1", "latitude": "41.425216", "slots": "15", "type": "BIKE", "id": "249", "streetName": "A\u00e7ores"}, {"status": "OPN", "nearbyStations": "249, 252, 253, 254", "altitude": "27", "longitude": "2.190132", "bikes": "11", "streetNumber": "12", "latitude": "41.426248", "slots": "15", "type": "BIKE", "id": "250", "streetName": "Portugal"}, {"status": "OPN", "nearbyStations": "243, 246, 247, 249", "altitude": "27", "longitude": "2.185226", "bikes": "15", "streetNumber": "13", "latitude": "41.425405", "slots": "18", "type": "BIKE", "id": "251", "streetName": "Cardenal Tedeschini"}, {"status": "OPN", "nearbyStations": "249, 250, 254, 391", "altitude": "18", "longitude": "2.193402", "bikes": "20", "streetNumber": "23", "latitude": "41.428184", "slots": "11", "type": "BIKE", "id": "252", "streetName": "Carrer del Pare Manyanet"}, {"status": "OPN", "nearbyStations": "250, 252, 254, 257", "altitude": "18", "longitude": "2.191821", "bikes": "23", "streetNumber": "37", "latitude": "41.429977", "slots": "3", "type": "BIKE", "id": "253", "streetName": "Onze de Setembre"}, {"status": "OPN", "nearbyStations": "250, 252, 253, 255", "altitude": "27", "longitude": "2.189581", "bikes": "30", "streetNumber": "93", "latitude": "41.430343", "slots": "0", "type": "BIKE", "id": "254", "streetName": "Gran de Sant Andreu"}, {"status": "OPN", "nearbyStations": "253, 254, 257, 274", "altitude": "27", "longitude": "2.185852", "bikes": "21", "streetNumber": "11", "latitude": "41.431183", "slots": "2", "type": "BIKE", "id": "255", "streetName": "Irlanda"}, {"status": "OPN", "nearbyStations": "255, 257, 259, 285", "altitude": "25", "longitude": "2.189524", "bikes": "20", "streetNumber": "28", "latitude": "41.435998", "slots": "5", "type": "BIKE", "id": "256", "streetName": "Malats"}, {"status": "OPN", "nearbyStations": "253, 254, 255, 256", "altitude": "25", "longitude": "2.189614", "bikes": "13", "streetNumber": "2", "latitude": "41.433897", "slots": "13", "type": "BIKE", "id": "257", "streetName": "Sant Adri\u00e0"}, {"status": "OPN", "nearbyStations": "256, 257, 259, 263", "altitude": "24", "longitude": "2.189101", "bikes": "19", "streetNumber": "6", "latitude": "41.442013", "slots": "7", "type": "BIKE", "id": "258", "streetName": "Carrer de Palomar"}, {"status": "OPN", "nearbyStations": "256, 257, 258, 267", "altitude": "25", "longitude": "2.185818", "bikes": "23", "streetNumber": "14", "latitude": "41.439109", "slots": "0", "type": "BIKE", "id": "259", "streetName": "Carrer de Bartrina"}, {"status": "OPN", "nearbyStations": "256, 257, 263, 264", "altitude": "19", "longitude": "2.192952", "bikes": "13", "streetNumber": "6", "latitude": "41.43618", "slots": "10", "type": "BIKE", "id": "260", "streetName": "Pla\u00e7a de l'Estaci\u00f3"}, {"status": "OPN", "nearbyStations": "70, 71, 84, 90", "altitude": "35", "longitude": "2.160644", "bikes": "25", "streetNumber": "39", "latitude": "41.382206", "slots": "0", "type": "BIKE", "id": "261", "streetName": "Villarroel"}, {"status": "OPN", "nearbyStations": "81, 82, 111, 191", "altitude": "40", "longitude": "2.152496", "bikes": "2", "streetNumber": "103", "latitude": "41.379821", "slots": "28", "type": "BIKE", "id": "262", "streetName": "Rocafort"}, {"status": "OPN", "nearbyStations": "256, 257, 260, 264", "altitude": "25", "longitude": "2.191386", "bikes": "15", "streetNumber": "28", "latitude": "41.437656", "slots": "11", "type": "BIKE", "id": "263", "streetName": "C/Joan Torras"}, {"status": "OPN", "nearbyStations": "263, 267, 268, 344", "altitude": "19", "longitude": "2.197033", "bikes": "16", "streetNumber": "25", "latitude": "41.439949", "slots": "14", "type": "BIKE", "id": "264", "streetName": "Rep\u00fablica Dominicana"}, {"status": "OPN", "nearbyStations": "80, 84, 110, 209", "altitude": "41", "longitude": "2.15837", "bikes": "2", "streetNumber": "82", "latitude": "41.38566", "slots": "21", "type": "BIKE", "id": "265", "streetName": "Casanovas, 71"}, {"status": "OPN", "nearbyStations": "263, 264, 268, 344", "altitude": "37", "longitude": "2.184238", "bikes": "10", "streetNumber": "176", "latitude": "41.426841", "slots": "16", "type": "BIKE", "id": "266", "streetName": "Concepci\u00f3 Arenal"}, {"status": "OPN", "nearbyStations": "258, 263, 264, 268", "altitude": "24", "longitude": "2.190623", "bikes": "15", "streetNumber": "129", "latitude": "41.443395", "slots": "10", "type": "BIKE", "id": "267", "streetName": "Passeig Torras i Bages"}, {"status": "OPN", "nearbyStations": "263, 264, 267, 271", "altitude": "23", "longitude": "2.192892", "bikes": "23", "streetNumber": "72", "latitude": "41.445705", "slots": "2", "type": "BIKE", "id": "268", "streetName": "Fernando Pessoa"}, {"status": "OPN", "nearbyStations": "264, 268, 270, 271", "altitude": "23", "longitude": "2.192826", "bikes": "12", "streetNumber": "121", "latitude": "41.448128", "slots": "14", "type": "BIKE", "id": "269", "streetName": "Via Barcino"}, {"status": "OPN", "nearbyStations": "267, 268, 269, 271", "altitude": "24", "longitude": "2.190978", "bikes": "4", "streetNumber": "5", "latitude": "41.449874", "slots": "20", "type": "BIKE", "id": "270", "streetName": "Pl. de la Trinitat, 5-7 / amb Mare de D\u00e9u de Lorda"}, {"status": "OPN", "nearbyStations": "267, 268, 269, 270", "altitude": "18", "longitude": "2.192668", "bikes": "12", "streetNumber": "71", "latitude": "41.450882", "slots": "8", "type": "BIKE", "id": "271", "streetName": "Via Barcino"}, {"status": "OPN", "nearbyStations": "255, 273, 274, 298", "altitude": "27", "longitude": "2.18429", "bikes": "13", "streetNumber": "281", "latitude": "41.432552", "slots": "10", "type": "BIKE", "id": "272", "streetName": "Concepci\u00f3 Arenal"}, {"status": "OPN", "nearbyStations": "255, 272, 274, 275", "altitude": "27", "longitude": "2.183382", "bikes": "5", "streetNumber": "404", "latitude": "41.430404", "slots": "28", "type": "BIKE", "id": "273", "streetName": "Avda. Meridiana"}, {"status": "OPN", "nearbyStations": "254, 255, 272, 273", "altitude": "27", "longitude": "2.18473", "bikes": "32", "streetNumber": "67", "latitude": "41.430071", "slots": "0", "type": "BIKE", "id": "274", "streetName": "Rambla Fabra i Puig"}, {"status": "OPN", "nearbyStations": "272, 273, 274, 298", "altitude": "27", "longitude": "2.182225", "bikes": "12", "streetNumber": "3", "latitude": "41.430693", "slots": "16", "type": "BIKE", "id": "275", "streetName": "Rio de Janeiro"}, {"status": "OPN", "nearbyStations": "231, 277, 278, 318", "altitude": "87", "longitude": "2.165275", "bikes": "0", "streetNumber": "", "latitude": "41.412163", "slots": "22", "type": "BIKE", "id": "276", "streetName": "Pla\u00e7a Alfons X el Savi / Ronda del Guinard\u00f3 "}, {"status": "OPN", "nearbyStations": "28, 122, 123, 231", "altitude": "59", "longitude": "2.16905", "bikes": "16", "streetNumber": "328", "latitude": "41.408284", "slots": "10", "type": "BIKE", "id": "277", "streetName": "Travessera de Gr\u00e0cia"}, {"status": "OPN", "nearbyStations": "20, 21, 28, 277", "altitude": "59", "longitude": "2.172073", "bikes": "0", "streetNumber": "41", "latitude": "41.411503", "slots": "23", "type": "BIKE", "id": "278", "streetName": "Rosalia de Castro"}, {"status": "OPN", "nearbyStations": "278, 280, 281, 318", "altitude": "72", "longitude": "2.174593", "bikes": "0", "streetNumber": "118", "latitude": "41.416658", "slots": "25", "type": "BIKE", "id": "279", "streetName": "Ronda Guinardo"}, {"status": "OPN", "nearbyStations": "20, 21, 164, 239", "altitude": "33", "longitude": "2.17853", "bikes": "16", "streetNumber": "241", "latitude": "41.412804", "slots": "8", "type": "BIKE", "id": "280", "streetName": "Industria "}, {"status": "OPN", "nearbyStations": "241, 242, 243, 279", "altitude": "37", "longitude": "2.176524", "bikes": "9", "streetNumber": "179", "latitude": "41.419384", "slots": "17", "type": "BIKE", "id": "281", "streetName": "Ronda Guinardo"}, {"status": "OPN", "nearbyStations": "291, 292, 293, 295", "altitude": "88", "longitude": "2.166022", "bikes": "2", "streetNumber": "1", "latitude": "41.427561", "slots": "25", "type": "BIKE", "id": "282", "streetName": "Font d'en Fargas"}, {"status": "OPN", "nearbyStations": "282, 291, 292, 293", "altitude": "88", "longitude": "2.16157", "bikes": "0", "streetNumber": "1", "latitude": "41.42968", "slots": "21", "type": "BIKE", "id": "283", "streetName": "Carrer Fulton"}, {"status": "OPN", "nearbyStations": "203, 205, 206, 212", "altitude": "60", "longitude": "2.131454", "bikes": "6", "streetNumber": "652", "latitude": "41.389503", "slots": "20", "type": "BIKE", "id": "284", "streetName": "Ada. Diagonal"}, {"status": "OPN", "nearbyStations": "256, 257, 259, 272", "altitude": "25", "longitude": "2.186059", "bikes": "20", "streetNumber": "98", "latitude": "41.436708", "slots": "3", "type": "BIKE", "id": "285", "streetName": "Malats"}, {"status": "OPN", "nearbyStations": "42, 44, 142, 143", "altitude": "18", "longitude": "2.191428", "bikes": "19", "streetNumber": "76", "latitude": "41.403103", "slots": "1", "type": "BIKE", "id": "286", "streetName": "Bol\u00edvia"}, {"status": "OPN", "nearbyStations": "61, 64, 66, 406", "altitude": "32", "longitude": "2.168113", "bikes": "1", "streetNumber": "632", "latitude": "41.389171", "slots": "13", "type": "BIKE", "id": "287", "streetName": "Gran Via"}, {"status": "OPN", "nearbyStations": "244, 291, 292, 293", "altitude": "63", "longitude": "2.174487", "bikes": "14", "streetNumber": "", "latitude": "41.429636", "slots": "15", "type": "BIKE", "id": "288", "streetName": "Pl. Virrei Amat"}, {"status": "OPN", "nearbyStations": "127, 238, 240, 248", "altitude": "18", "longitude": "2.191022", "bikes": "24", "streetNumber": "64", "latitude": "41.416828", "slots": "2", "type": "BIKE", "id": "289", "streetName": "M\u00farcia"}, {"status": "OPN", "nearbyStations": "294, 295, 299, 301", "altitude": "61", "longitude": "2.174047", "bikes": "1", "streetNumber": "1", "latitude": "41.437094", "slots": "24", "type": "BIKE", "id": "290", "streetName": "Pla\u00e7a dels Jardins d'Alf\u00e0bia"}, {"status": "OPN", "nearbyStations": "242, 244, 282, 292", "altitude": "63", "longitude": "2.174598", "bikes": "2", "streetNumber": "5", "latitude": "41.426975", "slots": "20", "type": "BIKE", "id": "291", "streetName": "Subirats"}, {"status": "OPN", "nearbyStations": "282, 291, 293, 300", "altitude": "63", "longitude": "2.171974", "bikes": "1", "streetNumber": "1", "latitude": "41.430036", "slots": "24", "type": "BIKE", "id": "292", "streetName": "Amilcar"}, {"status": "OPN", "nearbyStations": "282, 291, 292, 295", "altitude": "88", "longitude": "2.164559", "bikes": "0", "streetNumber": "44", "latitude": "41.428747", "slots": "27", "type": "BIKE", "id": "293", "streetName": "Petrarca"}, {"status": "OPN", "nearbyStations": "290, 295, 299, 301", "altitude": "61", "longitude": "2.170678", "bikes": "11", "streetNumber": "", "latitude": "41.436373", "slots": "16", "type": "BIKE", "id": "294", "streetName": "Seu del Districte (Nou Barris)"}, {"status": "OPN", "nearbyStations": "282, 292, 294, 301", "altitude": "61", "longitude": "2.1715", "bikes": "0", "streetNumber": "60", "latitude": "41.43345", "slots": "25", "type": "BIKE", "id": "295", "streetName": "Sant Iscle"}, {"status": "OPN", "nearbyStations": "259, 272, 285, 298", "altitude": "25", "longitude": "2.183877", "bikes": "2", "streetNumber": "1", "latitude": "41.436505", "slots": "28", "type": "BIKE", "id": "296", "streetName": "Carrer de Rossell\u00f3 i Porcel"}, {"status": "OPN", "nearbyStations": "290, 296, 298, 299", "altitude": "45", "longitude": "2.176822", "bikes": "5", "streetNumber": "1", "latitude": "41.438864", "slots": "14", "type": "BIKE", "id": "297", "streetName": "Carrer Tur\u00f3 Blau"}, {"status": "OPN", "nearbyStations": "275, 296, 300", "altitude": "45", "longitude": "2.181747", "bikes": "28", "streetNumber": "22", "latitude": "41.43463", "slots": "5", "type": "BIKE", "id": "298", "streetName": "Andreu Nin"}, {"status": "OPN", "nearbyStations": "294, 295, 297, 301", "altitude": "45", "longitude": "2.175199", "bikes": "15", "streetNumber": "55", "latitude": "41.433965", "slots": "11", "type": "BIKE", "id": "299", "streetName": "Carrer de l'Escultor Ord\u00f3\u00f1ez"}, {"status": "OPN", "nearbyStations": "275, 298, 299, 301", "altitude": "47", "longitude": "2.176909", "bikes": "9", "streetNumber": "1", "latitude": "41.431593", "slots": "7", "type": "BIKE", "id": "300", "streetName": "Carrer de Maladeta"}, {"status": "OPN", "nearbyStations": "290, 294, 295, 299", "altitude": "61", "longitude": "2.169644", "bikes": "5", "streetNumber": "8", "latitude": "41.437053", "slots": "22", "type": "BIKE", "id": "301", "streetName": "Marie Curie"}, {"status": "OPN", "nearbyStations": "303, 304, 335, 336", "altitude": "73", "longitude": "2.111615", "bikes": "11", "streetNumber": "41", "latitude": "41.39065", "slots": "14", "type": "BIKE", "id": "302", "streetName": "Cavallers"}, {"status": "OPN", "nearbyStations": "302, 304, 335, 336", "altitude": "101", "longitude": "2.115076", "bikes": "5", "streetNumber": "67", "latitude": "41.393341", "slots": "21", "type": "BIKE", "id": "303", "streetName": "Cavallers"}, {"status": "OPN", "nearbyStations": "203, 204, 305, 335", "altitude": "63", "longitude": "2.121029", "bikes": "1", "streetNumber": "7", "latitude": "41.390208", "slots": "29", "type": "BIKE", "id": "304", "streetName": "Manuel Girona"}, {"status": "OPN", "nearbyStations": "203, 204, 305, 306", "altitude": "63", "longitude": "2.123637", "bikes": "6", "streetNumber": "680", "latitude": "41.387498", "slots": "19", "type": "BIKE", "id": "305", "streetName": "Diagonal"}, {"status": "OPN", "nearbyStations": "199, 204, 305, 310", "altitude": "63", "longitude": "2.122912", "bikes": "18", "streetNumber": "7", "latitude": "41.385465", "slots": "9", "type": "BIKE", "id": "306", "streetName": "Doctor Salvador Cardenal"}, {"status": "OPN", "nearbyStations": "308, 309, 310, 311", "altitude": "50", "longitude": "2.113505", "bikes": "5", "streetNumber": "", "latitude": "41.379135", "slots": "25", "type": "BIKE", "id": "307", "streetName": "Pintor Ribalta"}, {"status": "OPN", "nearbyStations": "307, 309, 310, 311", "altitude": "50", "longitude": "2.113864", "bikes": "6", "streetNumber": "11", "latitude": "41.376788", "slots": "20", "type": "BIKE", "id": "308", "streetName": "Cardenal Reig"}, {"status": "OPN", "nearbyStations": "307, 308, 310, 311", "altitude": "47", "longitude": "2.116973", "bikes": "5", "streetNumber": "26", "latitude": "41.37674", "slots": "22", "type": "BIKE", "id": "309", "streetName": "Sant Ram\u00f3n Nonat"}, {"status": "OPN", "nearbyStations": "306, 307, 309, 311", "altitude": "47", "longitude": "2.119077", "bikes": "1", "streetNumber": "", "latitude": "41.381223", "slots": "26", "type": "BIKE", "id": "310", "streetName": "Josep Samitier"}, {"status": "OPN", "nearbyStations": "307, 308, 310, 312", "altitude": "47", "longitude": "2.121826", "bikes": "8", "streetNumber": "58", "latitude": "41.378172", "slots": "13", "type": "BIKE", "id": "311", "streetName": "Travessera de les Corts"}, {"status": "OPN", "nearbyStations": "193, 199, 311, 353", "altitude": "46", "longitude": "2.126588", "bikes": "8", "streetNumber": "2", "latitude": "41.379816", "slots": "24", "type": "BIKE", "id": "312", "streetName": "Felipe de Paz"}, {"status": "OPN", "nearbyStations": "185, 188, 314, 354", "altitude": "39", "longitude": "2.131016", "bikes": "4", "streetNumber": "38", "latitude": "41.374558", "slots": "21", "type": "BIKE", "id": "313", "streetName": "C\u00e1ceres"}, {"status": "OPN", "nearbyStations": "192, 193, 313, 354", "altitude": "46", "longitude": "2.129737", "bikes": "18", "streetNumber": "44", "latitude": "41.37836", "slots": "9", "type": "BIKE", "id": "314", "streetName": "Rambla del Brasil"}, {"status": "OPN", "nearbyStations": "177, 239, 241, 280", "altitude": "33", "longitude": "2.181966", "bikes": "6", "streetNumber": "32", "latitude": "41.415617", "slots": "19", "type": "BIKE", "id": "315", "streetName": "Guinard\u00f3"}, {"status": "OPN", "nearbyStations": "128, 130, 131, 317", "altitude": "13", "longitude": "2.198316", "bikes": "26", "streetNumber": "55", "latitude": "41.422212", "slots": "0", "type": "BIKE", "id": "316", "streetName": "Cant\u00e0bria"}, {"status": "OPN", "nearbyStations": "130, 131, 316, 391", "altitude": "12", "longitude": "2.200693", "bikes": "27", "streetNumber": "256", "latitude": "41.425566", "slots": "0", "type": "BIKE", "id": "317", "streetName": "Rambla Prim"}, {"status": "OPN", "nearbyStations": "21, 276, 278, 279", "altitude": "59", "longitude": "2.170838", "bikes": "8", "streetNumber": "83", "latitude": "41.414076", "slots": "18", "type": "BIKE", "id": "318", "streetName": "Ronda Guinardo"}, {"status": "OPN", "nearbyStations": "101, 102, 216, 219", "altitude": "69", "longitude": "2.145161", "bikes": "10", "streetNumber": "23", "latitude": "41.39472", "slots": "18", "type": "BIKE", "id": "319", "streetName": "Amig\u00f3"}, {"status": "OPN", "nearbyStations": "217, 221, 230, 321", "altitude": "86", "longitude": "2.145875", "bikes": "0", "streetNumber": "21", "latitude": "41.403384", "slots": "22", "type": "BIKE", "id": "320", "streetName": "Francol\u00ed"}, {"status": "OPN", "nearbyStations": "217, 230, 322, 326", "altitude": "86", "longitude": "2.143648", "bikes": "0", "streetNumber": "98", "latitude": "41.404038", "slots": "27", "type": "BIKE", "id": "321", "streetName": "Carrer de P\u00e1dua"}, {"status": "OPN", "nearbyStations": "217, 323, 324, 328", "altitude": "106", "longitude": "2.13907", "bikes": "10", "streetNumber": "165", "latitude": "41.400977", "slots": "16", "type": "BIKE", "id": "322", "streetName": "Santal\u00f3"}, {"status": "OPN", "nearbyStations": "214, 215, 217, 324", "altitude": "79", "longitude": "2.138717", "bikes": "17", "streetNumber": "13", "latitude": "41.397996", "slots": "10", "type": "BIKE", "id": "323", "streetName": "Vallmajor"}, {"status": "OPN", "nearbyStations": "214, 215, 322, 323", "altitude": "79", "longitude": "2.136258", "bikes": "0", "streetNumber": "31", "latitude": "41.396938", "slots": "25", "type": "BIKE", "id": "324", "streetName": "Reina Victoria"}, {"status": "OPN", "nearbyStations": "212, 214, 331, 333", "altitude": "82", "longitude": "2.130325", "bikes": "2", "streetNumber": "13", "latitude": "41.39493", "slots": "22", "type": "BIKE", "id": "325", "streetName": "Alt de Gironella"}, {"status": "OPN", "nearbyStations": "321, 327, 328, 330", "altitude": "106", "longitude": "2.137742", "bikes": "12", "streetNumber": "16", "latitude": "41.406983", "slots": "21", "type": "BIKE", "id": "326", "streetName": "Castanyer"}, {"status": "OPN", "nearbyStations": "321, 322, 326, 328", "altitude": "106", "longitude": "2.13453", "bikes": "0", "streetNumber": "23", "latitude": "41.405", "slots": "24", "type": "BIKE", "id": "327", "streetName": "Reus"}, {"status": "OPN", "nearbyStations": "321, 322, 327, 329", "altitude": "106", "longitude": "2.13427", "bikes": "1", "streetNumber": "2", "latitude": "41.40293", "slots": "25", "type": "BIKE", "id": "328", "streetName": "Artesa de Segre"}, {"status": "OPN", "nearbyStations": "327, 328, 330, 332", "altitude": "130", "longitude": "2.128541", "bikes": "8", "streetNumber": "99", "latitude": "41.402879", "slots": "19", "type": "BIKE", "id": "329", "streetName": "Carrer de les Escoles Pies"}, {"status": "OPN", "nearbyStations": "328, 329, 331, 332", "altitude": "130", "longitude": "2.130658", "bikes": "14", "streetNumber": "44", "latitude": "41.400587", "slots": "11", "type": "BIKE", "id": "330", "streetName": "Doctor Carulla"}, {"status": "OPN", "nearbyStations": "325, 332, 333, 335", "altitude": "82", "longitude": "2.12801", "bikes": "5", "streetNumber": "65", "latitude": "41.39706", "slots": "28", "type": "BIKE", "id": "331", "streetName": "Castellnou"}, {"status": "OPN", "nearbyStations": "329, 330, 331, 333", "altitude": "82", "longitude": "2.12809", "bikes": "11", "streetNumber": "86", "latitude": "41.399822", "slots": "13", "type": "BIKE", "id": "332", "streetName": "Doctor Roux"}, {"status": "OPN", "nearbyStations": "325, 331, 335, 336", "altitude": "82", "longitude": "2.125106", "bikes": "0", "streetNumber": "3", "latitude": "41.395632", "slots": "25", "type": "BIKE", "id": "333", "streetName": "Passatge de Senillosa"}, {"status": "OPN", "nearbyStations": "331, 332, 337, 338", "altitude": "138", "longitude": "2.123268", "bikes": "1", "streetNumber": "348", "latitude": "41.400722", "slots": "26", "type": "BIKE", "id": "334", "streetName": "Via Augusta"}, {"status": "OPN", "nearbyStations": "212, 304, 333, 336", "altitude": "96", "longitude": "2.123224", "bikes": "0", "streetNumber": "2", "latitude": "41.393639", "slots": "18", "type": "BIKE", "id": "335", "streetName": "Santa Am\u00e8lia"}, {"status": "OPN", "nearbyStations": "333, 335, 337, 338", "altitude": "96", "longitude": "2.120973", "bikes": "0", "streetNumber": "10", "latitude": "41.395274", "slots": "26", "type": "BIKE", "id": "336", "streetName": "Caponata"}, {"status": "OPN", "nearbyStations": "333, 334, 336, 338", "altitude": "96", "longitude": "2.120422", "bikes": "0", "streetNumber": "12", "latitude": "41.398719", "slots": "24", "type": "BIKE", "id": "337", "streetName": "Carme Karr"}, {"status": "OPN", "nearbyStations": "333, 334, 336, 337", "altitude": "96", "longitude": "2.119506", "bikes": "13", "streetNumber": "63", "latitude": "41.397572", "slots": "20", "type": "BIKE", "id": "338", "streetName": "Avinguda de J.Foix"}, {"status": "OPN", "nearbyStations": "153, 154, 165, 382", "altitude": "10", "longitude": "2.2037", "bikes": "7", "streetNumber": "51", "latitude": "41.4026", "slots": "19", "type": "BIKE", "id": "339", "streetName": "Bilbao"}, {"status": "OPN", "nearbyStations": "264, 341, 343, 344", "altitude": "28", "longitude": "2.204634", "bikes": "22", "streetNumber": "113", "latitude": "41.436145", "slots": "1", "type": "BIKE", "id": "340", "streetName": "Sant Adri\u00e0"}, {"status": "OPN", "nearbyStations": "264, 340, 343, 344", "altitude": "28", "longitude": "2.205886", "bikes": "18", "streetNumber": "33", "latitude": "41.434191", "slots": "9", "type": "BIKE", "id": "341", "streetName": "Passeig Enric Sanch\u00eds"}, {"status": "OPN", "nearbyStations": "142, 152, 153, 393, 428", "altitude": "18", "longitude": "2.193702", "bikes": "25", "streetNumber": "134", "latitude": "41.403502", "slots": "1", "type": "BIKE", "id": "342", "streetName": "Roc Boronat"}, {"status": "OPN", "nearbyStations": "260, 264, 340, 344", "altitude": "19", "longitude": "2.199598", "bikes": "24", "streetNumber": "", "latitude": "41.438886", "slots": "2", "type": "BIKE", "id": "343", "streetName": "Campana de la Maquinista"}, {"status": "OPN", "nearbyStations": "260, 263, 264, 343", "altitude": "23", "longitude": "2.199538", "bikes": "18", "streetNumber": "73", "latitude": "41.443127", "slots": "8", "type": "BIKE", "id": "344", "streetName": "Ciutat d'Asunci\u00f3n"}, {"status": "OPN", "nearbyStations": "179, 180, 346, 351", "altitude": "48", "longitude": "2.139771", "bikes": "10", "streetNumber": "", "latitude": "41.363093", "slots": "22", "type": "BIKE", "id": "345", "streetName": "Pl. Teresa de Claramunt"}, {"status": "OPN", "nearbyStations": "345, 347, 348, 349", "altitude": "48", "longitude": "2.139132", "bikes": "17", "streetNumber": "33", "latitude": "41.360654", "slots": "12", "type": "BIKE", "id": "346", "streetName": "Carrer de la Foneria"}, {"status": "OPN", "nearbyStations": "345, 346, 348, 349", "altitude": "34", "longitude": "2.143401", "bikes": "14", "streetNumber": "235", "latitude": "41.358255", "slots": "17", "type": "BIKE", "id": "347", "streetName": "Mare de D\u00e9u dels Ports"}, {"status": "OPN", "nearbyStations": "345, 346, 347, 349", "altitude": "13", "longitude": "2.141563", "bikes": "19", "streetNumber": "", "latitude": "41.357067", "slots": "14", "type": "BIKE", "id": "348", "streetName": "Jardins de Can Ferrero"}, {"status": "OPN", "nearbyStations": "345, 347, 348, 351", "altitude": "13", "longitude": "2.137172", "bikes": "20", "streetNumber": "2", "latitude": "41.357338", "slots": "13", "type": "BIKE", "id": "349", "streetName": "Carrer de l'Energia"}, {"status": "OPN", "nearbyStations": "88, 90, 101, 109", "altitude": "69", "longitude": "2.14812", "bikes": "9", "streetNumber": "208", "latitude": "41.391833", "slots": "24", "type": "BIKE", "id": "350", "streetName": "Villarroel"}, {"status": "OPN", "nearbyStations": "179, 345, 352, 404", "altitude": "48", "longitude": "2.135637", "bikes": "27", "streetNumber": "26", "latitude": "41.362135", "slots": "1", "type": "BIKE", "id": "351", "streetName": "Jane Addams"}, {"status": "OPN", "nearbyStations": "179, 346, 351, 404", "altitude": "48", "longitude": "2.134144", "bikes": "19", "streetNumber": "10", "latitude": "41.36335", "slots": "13", "type": "BIKE", "id": "352", "streetName": "Radi"}, {"status": "OPN", "nearbyStations": "309, 311, 314, 354", "altitude": "47", "longitude": "2.123191", "bikes": "3", "streetNumber": "6", "latitude": "41.375414", "slots": "22", "type": "BIKE", "id": "353", "streetName": "Munn\u00e9"}, {"status": "OPN", "nearbyStations": "188, 312, 313, 314", "altitude": "46", "longitude": "2.13008", "bikes": "12", "streetNumber": "5", "latitude": "41.37592", "slots": "14", "type": "BIKE", "id": "354", "streetName": "Rambla del Brasil"}, {"status": "OPN", "nearbyStations": "184, 313, 353, 354", "altitude": "39", "longitude": "2.12859", "bikes": "3", "streetNumber": "89", "latitude": "41.37211", "slots": "23", "type": "BIKE", "id": "355", "streetName": "Carreras i Candi"}, {"status": "OPN", "nearbyStations": "227, 231, 276, 357", "altitude": "87", "longitude": "2.16107", "bikes": "1", "streetNumber": "48", "latitude": "41.411067", "slots": "24", "type": "BIKE", "id": "356", "streetName": "Balcells"}, {"status": "OPN", "nearbyStations": "227, 228, 231, 356", "altitude": "104", "longitude": "2.1581", "bikes": "6", "streetNumber": "82", "latitude": "41.410538", "slots": "19", "type": "BIKE", "id": "357", "streetName": "Cardener"}, {"status": "OPN", "nearbyStations": "34, 35, 36, 390", "altitude": "16", "longitude": "2.17927", "bikes": "7", "streetNumber": "24", "latitude": "41.387225", "slots": "16", "type": "BIKE", "id": "358", "streetName": "Gombau"}, {"status": "OPN", "nearbyStations": "5, 358, 362, 363", "altitude": "16", "longitude": "2.177572", "bikes": "19", "streetNumber": "16", "latitude": "41.390021", "slots": "5", "type": "BIKE", "id": "359", "streetName": "M\u00e9ndez N\u00fa\u00f1ez"}, {"status": "OPN", "nearbyStations": "15, 23, 362, 413", "altitude": "42", "longitude": "2.172984", "bikes": "4", "streetNumber": "62", "latitude": "41.395213", "slots": "22", "type": "BIKE", "id": "360", "streetName": "Bail\u00e9n"}, {"status": "OPN", "nearbyStations": "56, 57, 376, 410", "altitude": "5", "longitude": "2.178553", "bikes": "27", "streetNumber": "", "latitude": "41.376292", "slots": "5", "type": "BIKE", "id": "361", "streetName": "Passeig de Colom"}, {"status": "OPN", "nearbyStations": "15, 22, 123, 360", "altitude": "42", "longitude": "2.17057", "bikes": "15", "streetNumber": "100", "latitude": "41.397006", "slots": "13", "type": "BIKE", "id": "362", "streetName": "Bail\u00e9n"}, {"status": "OPN", "nearbyStations": "23, 34, 105, 359, 412", "altitude": "32", "longitude": "2.1744", "bikes": "2", "streetNumber": "20", "latitude": "41.39076", "slots": "22", "type": "BIKE", "id": "363", "streetName": "Bruc"}, {"status": "OPN", "nearbyStations": "60, 72, 92, 374", "altitude": "50", "longitude": "2.16343", "bikes": "16", "streetNumber": "61", "latitude": "41.39324", "slots": "15", "type": "BIKE", "id": "364", "streetName": "Passeig de Gr\u00e0cia"}, {"status": "OPN", "nearbyStations": "67, 75, 89, 109", "altitude": "51", "longitude": "2.14702", "bikes": "2", "streetNumber": "244", "latitude": "41.387499", "slots": "28", "type": "BIKE", "id": "365", "streetName": "Viladomat"}, {"status": "OPN", "nearbyStations": "74, 101, 102, 208", "altitude": "69", "longitude": "2.14358", "bikes": "4", "streetNumber": "1", "latitude": "41.393037", "slots": "22", "type": "BIKE", "id": "366", "streetName": "Pau Casals"}, {"status": "OPN", "nearbyStations": "75, 196, 197, 201", "altitude": "57", "longitude": "2.137331", "bikes": "3", "streetNumber": "39", "latitude": "41.385057", "slots": "24", "type": "BIKE", "id": "367", "streetName": "Sentmenat"}, {"status": "OPN", "nearbyStations": "1, 360, 362, 387", "altitude": "21", "longitude": "2.175714", "bikes": "5", "streetNumber": "350", "latitude": "41.396815", "slots": "17", "type": "BIKE", "id": "368", "streetName": "Diputaci\u00f3"}, {"status": "OPN", "nearbyStations": "1, 22, 24, 30", "altitude": "28", "longitude": "2.1786", "bikes": "2", "streetNumber": "513", "latitude": "41.400828", "slots": "22", "type": "BIKE", "id": "369", "streetName": "Consell de Cent"}, {"status": "OPN", "nearbyStations": "18, 19, 22, 120", "altitude": "49", "longitude": "2.172987", "bikes": "16", "streetNumber": "234", "latitude": "41.403735", "slots": "6", "type": "BIKE", "id": "370", "streetName": "Sardenya"}, {"status": "OPN", "nearbyStations": "26, 30, 218, 369", "altitude": "28", "longitude": "2.181264", "bikes": "6", "streetNumber": "49", "latitude": "41.404027", "slots": "17", "type": "BIKE", "id": "371", "streetName": "Carrer dels Enamorats"}, {"status": "OPN", "nearbyStations": "1, 16, 119, 426", "altitude": "18", "longitude": "2.184507", "bikes": "17", "streetNumber": "159", "latitude": "41.39999", "slots": "10", "type": "BIKE", "id": "372", "streetName": "Padilla"}, {"status": "OPN", "nearbyStations": "85, 86, 113, 235", "altitude": "35", "longitude": "2.161305", "bikes": "22", "streetNumber": "132", "latitude": "41.375073", "slots": "12", "type": "BIKE", "id": "373", "streetName": "Av. Paral.lel"}, {"status": "OPN", "nearbyStations": "27, 68, 72, 92", "altitude": "50", "longitude": "2.16123", "bikes": "0", "streetNumber": "89", "latitude": "41.395", "slots": "32", "type": "BIKE", "id": "374", "streetName": "Passeig de Gr\u00e0cia"}, {"status": "OPN", "nearbyStations": "56, 57, 114, 376, 410", "altitude": "1", "longitude": "2.180701", "bikes": "9", "streetNumber": "", "latitude": "41.372154", "slots": "18", "type": "BIKE", "id": "375", "streetName": "World Trade Center"}, {"status": "OPN", "nearbyStations": "56, 57, 361, 375, 378", "altitude": "1", "longitude": "2.180302", "bikes": "3", "streetNumber": "", "latitude": "41.371663", "slots": "22", "type": "BIKE", "id": "376", "streetName": "World Trade Center"}, {"status": "OPN", "nearbyStations": "37, 38, 126, 402", "altitude": "1", "longitude": "2.183737", "bikes": "26", "streetNumber": "", "latitude": "41.37747", "slots": "3", "type": "BIKE", "id": "377", "streetName": "Pl. Ict\u00edneo"}, {"status": "OPN", "nearbyStations": "56, 57, 114, 425", "altitude": "5", "longitude": "2.176716", "bikes": "17", "streetNumber": "1", "latitude": "41.378516", "slots": "2", "type": "BIKE", "id": "378", "streetName": "Pl.Joaquim Xira i Palau"}, {"status": "OPN", "nearbyStations": "37, 55, 378, 401", "altitude": "5", "longitude": "2.177308", "bikes": "15", "streetNumber": "4", "latitude": "41.381709", "slots": "1", "type": "BIKE", "id": "379", "streetName": "Pl. Sant Miquel"}, {"status": "OPN", "nearbyStations": "34, 36, 53, 395", "altitude": "32", "longitude": "2.174252", "bikes": "1", "streetNumber": "2", "latitude": "41.385463", "slots": "22", "type": "BIKE", "id": "380", "streetName": "Duran i Bas"}, {"status": "OPN", "nearbyStations": "51, 59, 388, 415", "altitude": "24", "longitude": "2.167667", "bikes": "27", "streetNumber": "10", "latitude": "41.381607", "slots": "0", "type": "BIKE", "id": "381", "streetName": "Agust\u00ed Duran i Sanpere"}, {"status": "OPN", "nearbyStations": "150, 154, 155, 162", "altitude": "10", "longitude": "2.204188", "bikes": "9", "streetNumber": "79", "latitude": "41.403938", "slots": "18", "type": "BIKE", "id": "382", "streetName": "Lope de Vega"}, {"status": "OPN", "nearbyStations": "81, 87, 100, 191", "altitude": "44", "longitude": "2.146793", "bikes": "9", "streetNumber": "85", "latitude": "41.380708", "slots": "15", "type": "BIKE", "id": "384", "streetName": "Vilamar\u00ed"}, {"status": "OPN", "nearbyStations": "76, 89, 90, 110", "altitude": "45", "longitude": "2.155266", "bikes": "10", "streetNumber": "119", "latitude": "41.387978", "slots": "18", "type": "BIKE", "id": "385", "streetName": "Casanova"}, {"status": "OPN", "nearbyStations": "85, 112, 236, 237", "altitude": "40", "longitude": "2.156848", "bikes": "3", "streetNumber": "164", "latitude": "41.375086", "slots": "22", "type": "BIKE", "id": "386", "streetName": "Av.Paral.lel"}, {"status": "OPN", "nearbyStations": "1, 3, 119, 414", "altitude": "21", "longitude": "2.178784", "bikes": "15", "streetNumber": "125", "latitude": "41.395796", "slots": "10", "type": "BIKE", "id": "387", "streetName": "N\u00e0pols"}, {"status": "OPN", "nearbyStations": "54, 58, 148, 381", "altitude": "24", "longitude": "2.167418", "bikes": "20", "streetNumber": "6", "latitude": "41.380593", "slots": "1", "type": "BIKE", "id": "388", "streetName": "Riera Alta"}, {"status": "OPN", "nearbyStations": "6, 14, 47, 118", "altitude": "11", "longitude": "2.1875", "bikes": "8", "streetNumber": "", "latitude": "41.38739", "slots": "16", "type": "BIKE", "id": "389", "streetName": "Recinte Parc de la Ciutadella"}, {"status": "OPN", "nearbyStations": "7, 9, 10, 389", "altitude": "16", "longitude": "2.18195", "bikes": "21", "streetNumber": "36", "latitude": "41.386955", "slots": "1", "type": "BIKE", "id": "390", "streetName": "Comer\u00e7"}, {"status": "OPN", "nearbyStations": "238, 248, 289, 423", "altitude": "18", "longitude": "2.191204", "bikes": "10", "streetNumber": "74", "latitude": "41.422873", "slots": "16", "type": "BIKE", "id": "391", "streetName": "Sagrera"}, {"status": "OPN", "nearbyStations": "45, 47, 118, 409", "altitude": "11", "longitude": "2.190543", "bikes": "29", "streetNumber": "5", "latitude": "41.390704", "slots": "0", "type": "BIKE", "id": "392", "streetName": "Ramon Turr\u00f3"}, {"status": "OPN", "nearbyStations": "142, 152, 153, 428", "altitude": "16", "longitude": "2.197653", "bikes": "26", "streetNumber": "86", "latitude": "41.402177", "slots": "4", "type": "BIKE", "id": "393", "streetName": "Llacuna"}, {"status": "OPN", "nearbyStations": "79, 80, 209", "altitude": "41", "longitude": "2.16305", "bikes": "25", "streetNumber": "226", "latitude": "41.38733", "slots": "0", "type": "BIKE", "id": "394", "streetName": "Diputaci\u00f3"}, {"status": "OPN", "nearbyStations": "62, 63, 64, 65", "altitude": "32", "longitude": "2.170212", "bikes": "30", "streetNumber": "22", "latitude": "41.386009", "slots": "0", "type": "BIKE", "id": "395", "streetName": "Pl. Catalunya"}, {"status": "OPN", "nearbyStations": "49, 117, 397, 407", "altitude": "1", "longitude": "2.196844", "bikes": "16", "streetNumber": "2", "latitude": "41.389028", "slots": "15", "type": "BIKE", "id": "396", "streetName": "Joan Mir\u00f3"}, {"status": "OPN", "nearbyStations": "69, 117, 170, 172", "altitude": "1", "longitude": "2.199334", "bikes": "5", "streetNumber": "24", "latitude": "41.388894", "slots": "20", "type": "BIKE", "id": "397", "streetName": "Av. Del Litoral"}, {"status": "OPN", "nearbyStations": "11, 12, 124, 424", "altitude": "0", "longitude": "2.193502", "bikes": "13", "streetNumber": "", "latitude": "41.381011", "slots": "5", "type": "BIKE", "id": "398", "streetName": "Passeig Mar\u00edtim de la Barceloneta"}, {"status": "OPN", "nearbyStations": "31, 32, 33, 41, 124", "altitude": "5", "longitude": "2.188017", "bikes": "12", "streetNumber": "", "latitude": "41.36958", "slots": "13", "type": "BIKE", "id": "400", "streetName": "Moll Oriental"}, {"status": "OPN", "nearbyStations": "37, 115, 126, 402", "altitude": "5", "longitude": "2.181838", "bikes": "20", "streetNumber": "", "latitude": "41.381241", "slots": "1", "type": "BIKE", "id": "401", "streetName": "Pl. Antonio L\u00f3pez (Via Laietana) annexa a la 37"}, {"status": "OPN", "nearbyStations": "37, 38, 377, 401", "altitude": "5", "longitude": "2.182119", "bikes": "20", "streetNumber": "", "latitude": "41.380565", "slots": "5", "type": "BIKE", "id": "402", "streetName": "Passeig de Colom"}, {"status": "OPN", "nearbyStations": "179, 180, 184, 352", "altitude": "16", "longitude": "2.133087", "bikes": "25", "streetNumber": "28", "latitude": "41.365374", "slots": "2", "type": "BIKE", "id": "404", "streetName": "Juan Gris"}, {"status": "OPN", "nearbyStations": "83, 87, 110, 225", "altitude": "45", "longitude": "2.152", "bikes": "3", "streetNumber": "198", "latitude": "41.38551", "slots": "19", "type": "BIKE", "id": "405", "streetName": "Comte Borrell"}, {"status": "OPN", "nearbyStations": "62, 78, 79, 287", "altitude": "41", "longitude": "2.164597", "bikes": "27", "streetNumber": "592", "latitude": "41.386512", "slots": "6", "type": "BIKE", "id": "406", "streetName": "Gran Via de Les Corts Catalanes"}, {"status": "OPN", "nearbyStations": "46, 47, 69, 392", "altitude": "1", "longitude": "2.192835", "bikes": "25", "streetNumber": "19", "latitude": "41.388471", "slots": "1", "type": "BIKE", "id": "407", "streetName": "Ramon Trias Fargas"}, {"status": "OPN", "nearbyStations": "46, 47, 392, 409", "altitude": "1", "longitude": "2.19231", "bikes": "30", "streetNumber": "11", "latitude": "41.388609", "slots": "0", "type": "BIKE", "id": "408", "streetName": "Villena, 11"}, {"status": "OPN", "nearbyStations": "45, 47, 149, 392", "altitude": "11", "longitude": "2.192417", "bikes": "27", "streetNumber": "50", "latitude": "41.392422", "slots": "1", "type": "BIKE", "id": "409", "streetName": "Joan d'\u00c0ustria"}, {"status": "OPN", "nearbyStations": "56, 57, 361, 375", "altitude": "5", "longitude": "2.17871", "bikes": "12", "streetNumber": "", "latitude": "41.376433", "slots": "19", "type": "BIKE", "id": "410", "streetName": "Passeig de Colom, s/n"}, {"status": "OPN", "nearbyStations": "34, 64, 65, 105, 363", "altitude": "32", "longitude": "2.172667", "bikes": "12", "streetNumber": "3", "latitude": "41.389012", "slots": "13", "type": "BIKE", "id": "412", "streetName": "Pl. Urquinaona"}, {"status": "OPN", "nearbyStations": "15, 23, 25, 360", "altitude": "42", "longitude": "2.170718", "bikes": "4", "streetNumber": "66", "latitude": "41.393512", "slots": "18", "type": "BIKE", "id": "413", "streetName": "Bruc"}, {"status": "OPN", "nearbyStations": "23, 360, 363, 387", "altitude": "21", "longitude": "2.176451", "bikes": "14", "streetNumber": "67", "latitude": "41.393744", "slots": "13", "type": "BIKE", "id": "414", "streetName": "Casp"}, {"status": "OPN", "nearbyStations": "54, 187, 388, 416", "altitude": "24", "longitude": "2.168921", "bikes": "25", "streetNumber": "13", "latitude": "41.379374", "slots": "0", "type": "BIKE", "id": "415", "streetName": "Rambla del Raval"}, {"status": "OPN", "nearbyStations": "54, 187, 388, 415", "altitude": "24", "longitude": "2.16965", "bikes": "17", "streetNumber": "20", "latitude": "41.378134", "slots": "4", "type": "BIKE", "id": "416", "streetName": "Rambla del Raval"}, {"status": "OPN", "nearbyStations": "6, 7, 359, 419", "altitude": "16", "longitude": "2.180251", "bikes": "22", "streetNumber": "", "latitude": "41.390943", "slots": "1", "type": "BIKE", "id": "418", "streetName": "Passeig de Llu\u00eds Companys "}, {"status": "OPN", "nearbyStations": "4, 6, 8, 418", "altitude": "16", "longitude": "2.180828", "bikes": "13", "streetNumber": "", "latitude": "41.391299", "slots": "18", "type": "BIKE", "id": "419", "streetName": "Passeig de Llu\u00eds Companys"}, {"status": "OPN", "nearbyStations": "93, 94, 95, 96", "altitude": "61", "longitude": "2.148082", "bikes": "6", "streetNumber": "361", "latitude": "41.374213", "slots": "18", "type": "BIKE", "id": "420", "streetName": "Gran Via"}, {"status": "OPN", "nearbyStations": "98, 100, 188, 210", "altitude": "45", "longitude": "2.13923", "bikes": "25", "streetNumber": "", "latitude": "41.377845", "slots": "2", "type": "BIKE", "id": "421", "streetName": "Pla\u00e7a de Joan Peir\u00f3"}, {"status": "OPN", "nearbyStations": "240, 248, 289, 391", "altitude": "18", "longitude": "2.189532", "bikes": "18", "streetNumber": "32", "latitude": "41.420201", "slots": "7", "type": "BIKE", "id": "423", "streetName": "Carrer d'Hondures"}, {"status": "OPN", "nearbyStations": "11, 41, 124, 398", "altitude": "0", "longitude": "2.192662", "bikes": "13", "streetNumber": "5", "latitude": "41.379632", "slots": "6", "type": "BIKE", "id": "424", "streetName": "Passeig Mar\u00edtim de la Barceloneta, devant del 5-7"}, {"status": "OPN", "nearbyStations": "50, 56, 57, 114", "altitude": "24", "longitude": "2.1749", "bikes": "23", "streetNumber": "5", "latitude": "41.37652", "slots": "4", "type": "BIKE", "id": "425", "streetName": "Carrer de Cervell\u00f3"}, {"status": "OPN", "nearbyStations": "1, 24, 119, 372", "altitude": "21", "longitude": "2.183023", "bikes": "22", "streetNumber": "59", "latitude": "41.398305", "slots": "5", "type": "BIKE", "id": "426", "streetName": "Carrer de Ribes"}, {"status": "OPN", "nearbyStations": "50, 148, 187, 232", "altitude": "24", "longitude": "2.168007", "bikes": "19", "streetNumber": "119", "latitude": "41.375336", "slots": "0", "type": "BIKE", "id": "427", "streetName": "Carrer de Sant Pau"}, {"status": "OPN", "nearbyStations": "142, 149, 153, 161", "altitude": "11", "longitude": "2.196261", "bikes": "12", "streetNumber": "103", "latitude": "41.398389", "slots": "15", "type": "BIKE", "id": "428", "streetName": "Carrer Pujades"},